conum_id,Code postal,departement,dep_nom,Nom de la structure,Adresse postale,Numero de téléphone,Site Web,Nom Prenom du référent,Mail contact,Activites proposees,Activites-codes,Initions et/ou formations proposées,Formations-codes,Conditions d'acces,acces-codes,Public,publics-codes,APTIC,Date de mise a jour,URL illustration / Logo,lat,lon,result_label
conum_1_,44 000,44,Loire-Atlantique,Bureau de la Poste Bourgneuf-en-Retz,16 Rue de la Tailée (Bourgneuf-en-Retz) 44580 Villeneuve-en-Retz,02 40 21 44 85 NR 02 51 72 94 50 NR NR 02 40 12 19 12 02 40 46 41 46 NR NR 02 51 80 41 51 NR NR NR 02 40 16 86 78 02 40 85 63 27 07 86 51 22 14 02 40 07 74 51 02 40 28 10 39 02 40 81 31 83 02 40 28 09 58 02 40 28 35 32 02 28 04 06 33 02 40 81 03 33 39 46 02 51 10 62 64 02 40 77 13 26 02 51 12 10 94 02 49 62 39 70 NR NR 02 40 02 94 56 NR 02 40 79 99 01 02 40 87 33 65 02 40 87 12 58 NR 02 40 83 31 95 NR 02 40 83 87 00 02 40 83 08 50 NR 02 40 96 44 30 02 40 42 31 05 02 51 71 92 12,https://www.maisondeservicesaupublic.fr/,NR,NR,Démarches administratives en ligneConseils,DeAd-Co,Accompagnements individuelsAutonomie,AcIn-Au,Gratuit,G,NR,NR,NR,      ,,47.042412,-1.954083,16 Rue de la Taillée 44580 Villeneuve-en-Retz
conum_2_,44 000,44,Loire-Atlantique,CCAS,1 BIS Place Saint-Similien 44000 Nantes,3949,https://www.nantes.fr/ccas,NR,NR,Conseils sur les droits sociaux,Co,,,NR,NR,NR,NR,NR,43953,,47.220022,-1.558402,1 bis Place Saint Similien 44000 Nantes
conum_3_,44 000,44,Loire-Atlantique,CRIJ-CIJ,37 Rue Saint-Léonard 44000 Nantes,02 28 03 90 89,http://www.infos-jeunes.fr/,NR,NR,Démarches administratives en ligneConseils,DeAd-Co,Accompagnements individuelsAutonomie,AcIn-Au,NR,NR,NR,NR,NR,,,47.218567,-1.555306,37 Rue Saint Léonard 44000 Nantes
conum_4_,44 000,44,Loire-Atlantique,Espace Multimedia Accoord Malakoff,Rue d'Angleterre 44000 Nantes,02 40 91 84 88,https://www.accoord.fr//nc_centre/maison-des-haubans-csc-malakoff/,NR,NR,NR,NR,NR,NR,NR,NR,NR,NR,NR,,,47.21476,-1.526578,Rue d'Angleterre 44000 Nantes
conum_5_,44 000,44,Loire-Atlantique,Maison de l'emploi Malakoff,8 Rue d'Angleterre 44000 Nantes,02 51 10 86 48,NR,NR,NR,Démarches administratives en ligneConseils,DeAd-Co,Accompagnements individuelsAutonomie,AcIn-Au,NR,NR,NR,NR,NR,,,47.214995,-1.526771,8 Rue d'Angleterre 44000 Nantes
conum_6_,44 000,44,Loire-Atlantique,Mediagraph,1 Rue d'Auvours 44000 Nantes,02 40 01 06 08,NR,NR,NR,NR,NR,NR,NR,NR,NR,NR,NR,NR,,,47.221374,-1.563522,1 Rue d'Auvours 44000 Nantes
conum_7_,44 100,44,Loire-Atlantique,Centre socioculturel Bourderies,2 rue de Saint-Brevin 44100 Nantes,02 40 01 61 17,https://www.accoord.fr/nc_centre/csc-bourderies/,NR,NR,Espace multimédia,Em,NR,NR,NR,NR,NR,NR,NR,,,47.207064,-1.596413,2 Rue de Saint Brévin 44100 Nantes
conum_8_,44 100,44,Loire-Atlantique,Dclic,19 Rue Auguste Renoir 44100 Nantes,02 40 61 76 35,www.dclicpoleinfo.fr,NR,contact@dclicpoleinfo.fr,NR,NR,InitiationsFormation individuellesFormations collectivesAccompagnements collectifsAccompagnements individuelsAutonomie,FoCo-FoIn-In-AcCo-AcIn-Au,Payant à coût solidaire,CondP,Jeunes-Adultes-Personnes âgées-Famille/enfant,Tp,NR,19/08/20,,47.223648,-1.595732,19 Rue Auguste Renoir 44100 Nantes
conum_9_,44 100,44,Loire-Atlantique,La Maison des habitants et du citoyen,1 Place des Lauriers 44100 Nantes,0 810 25 44 10,http://mdc44800.canalblog.com/,NR,NR,Démarches administratives en ligneConseils,DeAd-Co,Accompagnements individuelsAutonomie,AcIn-Au,NR,NR,NR,NR,NR,,,47.204346,-1.604948,1 Place des Lauriers 44100 Nantes
conum_10_,44 100,44,Loire-Atlantique,Maison de l'emploi Bellevue,46 Boulevard Jean Moulin 44100 Nantes,02 40 01 66 18,https://www.me-metropole-nantaise.org/atelier_lieu/bellevue/,NR,NR,Découverte de l'ordinateur. Découverte d'internet. Boite mail.,InNum,NR,NR,NR,NR,NR,NR,NR,16/10/2020,,47.205877,-1.601532,46 Boulevard Jean Moulin 44100 Nantes
conum_11_,44 100,44,Loire-Atlantique,Maison de l'emploi Dervallières,8 Rue Henri Matisse 44100 Nantes,02 40 87 21 84,NR,NR,NR,NR,NR,,,NR,NR,NR,NR,NR,,,47.223083,-1.596759,8 Rue Henri Matisse 44100 Nantes
conum_12_,44 100,44,Loire-Atlantique,Maison des habitants et du citoyen,1 Place des Lauriers 44100 Nantes,02 40 87 52 07,NR,NR,NR,Prise en main du matériel,PrMa-,Accompagnements individuels,AcIn,NR,NR,NR,NR,NR,,,47.204346,-1.604948,1 Place des Lauriers 44100 Nantes
conum_13_,44 100,44,Loire-Atlantique,Médiathèque Lisa Bresner,23 Boulevard Émile Romanet 44100 Nantes,02 40 79 31 65,NR,NR,NR,Prise en main du matérielPrise en main des logiciels de basePremiers pas sur internetDémarches administratives en ligneApprofondissement logicielsApprofondissement internetCulture numériqueConseils,PrMa-PrLo-PrIn-DeAd-ApLo-ApIn-CuNu-Co,InitiationsFormation individuellesFormations collectivesAccompagnements collectifsAccompagnements individuelsAutonomie,FoCo-FoIn-In-AcCo-AcIn-Au,NR,NR,NR,NR,NR,,,47.209868,-1.602584,23 Boulevard Emile Romanet 44100 Nantes
conum_14_,44 100,44,Loire Atlantique,Ping,38 rue du Breil,02 40 87 41 59,https://www.pingbase.net/,,,Approfondissement logicielsApprofondissement internetCulture numériqueCulture FabLab,ApIn-ApLo-CuNu-CuFa,Formations collectivesInitiationsAutonomie,FoCo-Au-In,Gratuit    Payant,G-P,Enfants / JeunesAdultes / Familles,e-J-F-A,Oui,,https://info.pingbase.net/wp-content/uploads/2018/12/LogoPiNGplus.png,47.229028,-1.584999,38 Rue du Breil 44100 Nantes
conum_15_,44 100,44,Loire-Atlantique,Regart's association,5 Rue du Gers 44100 Nantes,02 40 79 56 46,https://www.associationregartsnantes.org/,NR,NR,Cours d'informatique,InNum,NR,NR,NR,NR,NR,NR,NR,,,47.215271,-1.592148,5 Rue Monge 44100 Nantes
conum_16_,44 100,44,Loire-Atlantique,Dclic,19 Rue Auguste Renoir  44100 Nantes,02 40 79 35 04,https://www.linkedin.com/company/dclic-nantes,Thavie SOEUNG,contact@dclicpoleinfo.fr,Prise en main du matérielPrise en main des logiciels de basePrise en main des logiciels de basePremiers pas sur internetDémarches administratives en ligneApprofondissement logicielsApprofondissement internetCulture numérique,PrMa-PrLo-PrIn-DeAd-ApLo-ApIn-CuNu,Formations collectivesFormations individuellesInitiationsAccompagnements collectifsAccompagnements individuelsAutonomie,FoCo-FoIn-In-AcCo-AcIn-Au,Gratuit,G,Tout public,Tp,Non,,https://files.slack.com/files-pri/T01C2232M4K-F01CNE1U1MJ/logo_dclic.png,47.223648,-1.595732,19 Rue Auguste Renoir 44100 Nantes
conum_17_,44 110,44,Loire-Atlantique,Bibliothèque de Soudan,Rue Julien Masson 44110 Soudan,NR,http://www.cc-castelbriantais.fr/reseau-des-bibliotheques,NR,NR,Prise en main du matérielPrise en main des logiciels de basePremiers pas sur internetDémarches administratives en ligneApprofondissement logicielsApprofondissement internetCulture numériqueConseils,PrMa-PrLo-PrIn-DeAd-ApLo-ApIn-CuNu-Co,InitiationsFormation individuellesFormations collectivesAccompagnements collectifsAccompagnements individuelsAutonomie,FoCo-FoIn-In-AcCo-AcIn-Au,80€ hors commune,P,NR,NR,NR,,,47.737206,-1.304765,Rue Julien Masson 44110 Soudan
conum_18_,44 110,44,Loire-Atlantique,Bibliothèque de Villepot,Rue de la Chapelle 44110 Villepot,NR,http://www.cc-castelbriantais.fr/reseau-des-bibliotheques,NR,NR,Prise en main du matérielPrise en main des logiciels de basePremiers pas sur internetDémarches administratives en ligneApprofondissement logicielsApprofondissement internetCulture numériqueConseils,PrMa-PrLo-PrIn-DeAd-ApLo-ApIn-CuNu-Co,InitiationsFormation individuellesFormations collectivesAccompagnements collectifsAccompagnements individuelsAutonomie,FoCo-FoIn-In-AcCo-AcIn-Au,NR,NR,NR,NR,NR,,,47.775288,-1.27694,Rue de la Chapelle 44110 Villepot
conum_19_,44 110,44,Loire-Atlantique,Bibliotheque Louisfert,4 Rue de la République 44110 Louisfert,02 40 79 95 15,https://castelbriantais.e-sezhame.fr/node/content/nid/14403,NR,NR,Prise en main du matérielPrise en main des logiciels de basePremiers pas sur internetDémarches administratives en ligneApprofondissement logicielsApprofondissement internetCulture numériqueConseils,PrMa-PrLo-PrIn-DeAd-ApLo-ApIn-CuNu-Co,InitiationsFormation individuellesFormations collectivesAccompagnements collectifsAccompagnements individuelsAutonomie,FoCo-FoIn-In-AcCo-AcIn-Au,,,NR,NR,NR,,,47.676502,-1.434035,4 Rue de la République 44110 Louisfert
conum_20_,44 110,44,Loire-Atlantique,Bibliothèque Noyal-sur-Brutz,5 Rue des Troènes 44110 Noyal-sur-Brutz,NR,http://www.cc-castelbriantais.fr/reseau-des-bibliotheques,NR,NR,Prise en main du matérielPrise en main des logiciels de basePremiers pas sur internetDémarches administratives en ligneApprofondissement logicielsApprofondissement internetCulture numériqueConseils,PrMa-PrLo-PrIn-DeAd-ApLo-ApIn-CuNu-Co,InitiationsFormation individuellesFormations collectivesAccompagnements collectifsAccompagnements individuelsAutonomie,FoCo-FoIn-In-AcCo-AcIn-Au,NR,NR,NR,NR,NR,,,47.77471,-1.342405,5 Rue des Troènes 44110 Noyal-sur-Brutz
conum_21_,44 110,44,Loire-Atlantique,Blibliothèque Erbray,4 Rue du Rocher 44110 Erbray,02 40 54 02 12,http://www.cc-castelbriantais.fr/reseau-des-bibliotheques,NR,NR,Prise en main du matérielPrise en main des logiciels de basePremiers pas sur internetDémarches administratives en ligneApprofondissement logicielsApprofondissement internetCulture numériqueConseils,PrMa-PrLo-PrIn-DeAd-ApLo-ApIn-CuNu-Co,InitiationsFormation individuellesFormations collectivesAccompagnements collectifsAccompagnements individuelsAutonomie,FoCo-FoIn-In-AcCo-AcIn-Au,gratuit,G,NR,NR,NR,,,47.655525,-1.318018,4 Rue du Rocher 44110 Erbray
conum_22_,44 110,44,Loire-Atlantique,Maison de l'Emploi du Pays de Châteaubriant,16 Rue Gabriel de la Tour 44110 Châteaubriant,02 28 02 07 40,https://www.cc-chateaubriant-derval.fr,Directrice Christine GALISSON,mailto:cc-chateaubriant-derval.fr,Démarches administratives en ligneConseils,DeAd-Co,Accompagnements individuelsAutonomie,AcIn-Au,Sans emplois / résidents CC Châteaubriant,CondP,NR,NR,NR,,,47.711728,-1.373913,16 Rue Gabriel Delatour 44110 Châteaubriant
conum_23_,44 110,44,Loire-Atlantique,Médiathèque Chateaubriant,6 Place Saint-Nicolas 44110 Châteaubriant,NR,http://www.mairie-chateaubriant.fr/mediatheque-intercommunale/,NR,NR,Prise en main du matérielPrise en main des logiciels de basePremiers pas sur internetDémarches administratives en ligneApprofondissement logicielsApprofondissement internetCulture numériqueConseils,PrMa-PrLo-PrIn-DeAd-ApLo-ApIn-CuNu-Co,InitiationsFormation individuellesFormations collectivesAccompagnements collectifsAccompagnements individuelsAutonomie,FoCo-FoIn-In-AcCo-AcIn-Au,6€ pour les résidents hors communauté de communes Carte pass plus :- Pour les résidents de communauté de communes (tarif réduit 12€ / tarif normal 18€)-Pour les résidents hors communautés de communes (tarif réduit 18€ / tarif normal 24€),CondP,NR,NR,NR,,,47.719159,-1.376855,6 Place Saint-nicolas 44110 Châteaubriant
conum_24_,44 110,44,Loire-Atlantique,Pôle emploi Châteaubriant,10 Rue d'Ancenis 44110 Châteaubriant,07 81 95 54 13,https://www.pole-emploi.fr/annuaire/chateaubriant-44036,NR,NR,Démarches administratives en ligneConseils,DeAd-Co,Accompagnements individuelsAutonomie,AcIn-Au,Gratuit,G,NR,NR,NR,,,47.717716,-1.370852,10 Rue d'Ancenis 44110 Châteaubriant
conum_25_,44 117,44,Loire-Atlantique,Bibliothèque de saint-André-des-Eaux,Rue des Guifettes 44117 Saint-André-des-Eaux,NR,http://bibliotheque.saint-andre-des-eaux.fr,A côté du terrain de football,NR,Prise en main du matérielPrise en main des logiciels de basePremiers pas sur internetDémarches administratives en ligneApprofondissement logicielsApprofondissement internetCulture numériqueConseils,PrMa-PrLo-PrIn-DeAd-ApLo-ApIn-CuNu-Co,InitiationsFormation individuellesFormations collectivesAccompagnements collectifsAccompagnements individuelsAutonomie,FoCo-FoIn-In-AcCo-AcIn-Au,gratuit,G,NR,NR,NR,,,47.32028,-2.30713,Rue des Guifettes 44117 Saint-André-des-Eaux
conum_26_,44 119,44,Loire-Atlantique,CCAS Grandchamp des fontaines,25 Avenue du Général de Gaulle 44119 Grandchamps-des-Fontaines,02 40 36 09 13,http://www.grandchampdesfontaines.fr/mairie/services-municipaux-1999/ccas-301.html?cHash=f7a91b93291d711ac66f686a531a2273,NR,NR,Démarches administratives en ligneConseils,DeAd-Co,Accompagnements individuelsAutonomie,AcIn-Au,Gratuit,G,NR,NR,NR,,,47.364335,-1.60597,25 Avenue du Général de Gaulle 44119 Grandchamps-des-Fontaines
conum_27_,44 119,44,Loire-Atlantique,Maison de l'emploi Grandchamp-des-fontaines,1 Rue des Cèdres 44119 Grandchamps-des-Fontaines,NR,http://www.cceg.fr/annuaire-des-structures-192/maison-de-l-emploi-et-de-la-formation-grandchamp-des-fontaines-85.html?cHash=f1888d85829b12fa37a18e7e73806223,NR,NR,Lieu de formation lié l'emploi.,DeAd,InitiationsFormation individuellesFormations collectivesAccompagnements collectifsAccompagnements individuelsAutonomie,FoCo-FoIn-In-AcCo-AcIn-Au,gratuit,G,NR,NR,NR,,,47.364131,-1.606247,1 Rue des Cèdres 44119 Grandchamps-des-Fontaines
conum_28_,44 119,44,Loire-Atlantique,Médiathèque de Grandchamp des fontaines,Rue de Curette 44119 Grandchamps-des-Fontaines,02 40 12 24 12,http://www.grandchampdesfontaines.fr/culture-sports-loisirs/culture/mediatheque-victor-hugo-2057.html,NR,NR,Espace documentaire et point d'accès numérique.,LeAc,InitiationsFormation individuellesFormations collectivesAccompagnements collectifsAccompagnements individuelsAutonomie,FoCo-FoIn-In-AcCo-AcIn-Au,Gratuit,G,NR,NR,NR,,,47.364428,-1.606972,Rue de Curette 44119 Grandchamps-des-Fontaines
conum_29_,44 119,44,Loire-Atlantique,Solidarité Emploi,2 Rue des Cèdres 44119 Grandchamps-des-Fontaines,NR,http://solidarite-emploi44.fr/index.php,NR,NR,Démarches administratives en ligneConseils,DeAd-Co,Accompagnements individuelsAutonomie,AcIn-Au,NR,NR,NR,NR,NR,16/10/2020,,47.363845,-1.607129,2 Rue des Cèdres 44119 Grandchamps-des-Fontaines
conum_30_,44 120,44,Loire-Atlantique,Service Jeunesse,15 Rue Aristide Briand 44120 Vertou,NR,NR,NR,NR,NR,NR,NR,NR,NR,NR,NR,NR,NR,,,47.167415,-1.473814,15 Rue Aristide Briand 44120 Vertou
conum_31_,44 130,44,Loire-Atlantique,"Bibliothèque municipale ""Le Pot a Mots""",6 place Notre-Dame du Châtellier 44310 Saint-Lumine-de-Coutais,NR,https://www.mobilis-paysdelaloire.fr/annuaire/bibliotheques/bibliotheque-pot-a-mots-saint-lumine-de-coutais,NR,NR,NR,NR,NR,NR,NR,NR,NR,NR,NR,,,47.055928,-1.726852,6 Place Notre Dame du Chatellier 44310 Saint-Lumine-de-Coutais
conum_32_,44 130,44,Loire-Atlantique,Centre Socioculturel Tempo,7 Rue du 11 Novembre 44130 Blain,02 40 82 97 00,http://csctempo.fr/?lang=fr,NR,NR,Lieu de rencontre et de partage autour de jeu et de la convivialité,LeAc,InitiationsFormation individuellesFormations collectivesAccompagnements collectifsAccompagnements individuelsAutonomie,FoCo-FoIn-In-AcCo-AcIn-Au,Gratuit,G,NR,NR,NR,,,47.476321,-1.763342,7 Rue du 11 Novembre 44130 Blain
conum_33_,44 130,44,Loire-Atlantique,Maison de l'emploi Blain,7 Rue Victor Schoelcher 44130 Blain,02 40 82 20 30,https://www.pays-de-blain.com/economie-emploi/emploi-et-formation/,NR,NR,Démarches administratives en ligneConseils,DeAd-Co,Accompagnements individuelsAutonomie,AcIn-Au,gratuit,G,NR,NR,NR,,,47.47432,-1.761281,7 Rue Victor Schoelcher 44130 Blain
conum_34_,44 130,44,Loire-Atlantique,Médiathèque de Fay de bretagne,2 Rue Georges Sicard 44130 Fay-de-Bretagne,NR,http://www.faydebretagne.fr/jsp/site/Portal.jsp?page_id=120,Espace de lecture et point d'accès numérique.,NR,NR,NR,NR,NR,NR,NR,NR,NR,NR,,,47.415363,-1.792132,2 Rue Georges Sicard 44130 Fay-de-Bretagne
conum_35_,44 130,44,Loire-Atlantique,Centre Socioculturel TEMPO,7 rue du 11 novembre 44130 Blain,NR,http://csctempo.fr/,Thomas JAMMERNEGG,thomas@csctempo.fr,Prise en main du matérielPrise en main des logiciels de basePrise en main des logiciels de basePremiers pas sur internetDémarches administratives en ligneApprofondissement logicielsApprofondissement internetCulture numérique,PrMa-PrLo-PrIn-DeAd-ApLo-ApIn-CuNu,InitiationsAccompagnements collectifsAutonomie,In-AcCo-Au,Gratuit,G,Tout public,Tp,Non,,http://csctempo.fr/wp-content/uploads/2018/09/bandeau-7.png,47.476321,-1.763342,7 Rue du 11 Novembre 44130 Blain
conum_36_,44 140,44,Loire-Atlantique,Point Relais Emploi,Rue de la Mairie 44140 Montbert,NR,NR,NR,NR,NR,NR,NR,NR,NR,NR,NR,NR,NR,,,47.056891,-1.476556,Rue de la Marche 44140 Montbert
conum_37_,44 150,44,Loire-Atlantique,Bibliothèque Marcel Rouvreau,Port Arthur (Anetz) 44150 Vair-sur-Loire,NR,http://bibliofil.pays-ancenis.fr/,Accès à un point numérique.,NR,NR,NR,NR,NR,gratuit,G,NR,NR,NR,,,47.377928,-1.104773,Rue de Port Arthur 44150 Vair-sur-Loire
conum_38_,44 150,44,Loire-Atlantique,Le Fablab Pays d’Ancenis,5 Place Armand de Béthune 44150 Ancenis,02 72 01 54 64,https://fablabancenis.wordpress.com/,NR,NR,NR,NR,NR,NR,NR,NR,NR,NR,NR,,,47.364199,-1.19173,5 Place Armand de Bethune 44150 Ancenis-Saint-Géréon
conum_39_,44 150,44,Loire-Atlantique,Mairie d'Ancenis,Place du Maréchal Foch 44150 Ancenis,NR,https://www.ancenis.fr,NR,NR,Démarches administratives en ligneConseils,DeAd-Co,Accompagnements individuelsAutonomie,AcIn-Au,gratuit,G,NR,NR,NR,,,47.365559,-1.176597,Place du Marechal Foch 44150 Ancenis-Saint-Géréon
conum_40_,44 150,44,Loire-Atlantique,Maison de l'Etat,Rue du Docteur Bousseau 44150 Ancenis,02 40 77 95 21,http://www.loire-atlantique.gouv.fr/Services-de-l-Etat/Prefecture-et-sous-prefectures/Sous-prefecture-de-Chateaubriant-Ancenis,NR,NR,Démarches administratives en ligneConseils,LeAc-PrMa-PrLo-PrIn-DeAd-ApLo-ApIn-CuNu,InitiationsFormation individuellesFormations collectivesAccompagnements collectifsAccompagnements individuelsAutonomie,FoCo-FoIn-In-AcCo-AcIn-Au,gratuit,G,NR,NR,NR,,,47.363881,-1.184751,Rue du Docteur Bousseau 44150 Ancenis-Saint-Géréon
conum_41_,44 150,44,Loire-Atlantique,Médiathèque Ancenis,Place de la République 44150 Ancenis,02 40 27 25 85,http://bibliofil.pays-ancenis.fr/,NR,NR,Médiathèque qui propose l'emprunt ou la lecture sur place de divers supports culturels + accompagnement individuel sur demande des personnes,LeAc-PrMa-PrLo-PrIn-DeAd-ApLo-ApIn-CuNu,InitiationsFormation individuellesFormations collectivesAccompagnements collectifsAccompagnements individuelsAutonomie,FoCo-FoIn-In-AcCo-AcIn-Au,NR,NR,NR,NR,NR,,,47.365521,-1.183551,Place de la Republique 44150 Ancenis-Saint-Géréon
conum_42_,44 150,44,Loire-Atlantique,Mission locale d'Ancenis,30 Place Francis Robert 44150 Ancenis,02 40 39 37 01,http://www.missionlocalepaysancenis.fr/,NR,accueil@mlpaysancenis.fr,Démarches administratives en ligneConseils,LeAc-PrMa-PrLo-PrIn-DeAd-ApLo-ApIn-CuNu,InitiationsFormation individuellesFormations collectivesAccompagnements collectifsAccompagnements individuelsAutonomie,FoCo-FoIn-In-AcCo-AcIn-Au,jeunes 16/25 ans / réside dans le pays d’Ancenis,CondP,NR,NR,NR,,,47.370095,-1.178797,30 Avenue Francis Robert 44150 Ancenis-Saint-Géréon
conum_43_,44 150,44,Loire-Atlantique,Point Info Mobile,19 Rue Général Leclerc 44510 Le Pouliguen,NR,http://www.tourisme-lepouliguen.fr/wifi-au-pouliguen.html,NR,NR,Démarches administratives en ligneConseils,DeAd-Co,Accompagnements individuelsAutonomie,AcIn-Au,Gratuit,G,NR,NR,NR,,,47.278353,-2.429486,19 Rue Général Leclerc 44510 Le Pouliguen
conum_44_,44 150,44,Loire-Atlantique,Point relais emploi de Vallet,1 Place Charles de Gaulle 44330 Vallet,NR,NR,NR,NR,Démarches administratives en ligneConseils,DeAd-Co,Accompagnements individuelsAutonomie,AcIn-Au,gratuit,G,NR,NR,NR,,,47.160905,-1.26543,1 Place Charles de Gaulle 44330 Vallet
conum_45_,44 150,44,Loire-Atlantique,Pôle emploi Ancenis,336 Rue de Chateaubriand 44150 Ancenis,02 40 54 97 87,https://www.pole-emploi.fr/accueil/,NR,NR,Démarches administratives en ligneConseils,DeAd-Co,Accompagnements individuelsAutonomie,AcIn-Au,gratuit,G,NR,NR,NR,,,47.377984,-1.181473,336 Rue Francois Rene Chateaubriand 44150 Ancenis-Saint-Géréon
conum_46_,44 150,44,Loire-Atlantique,Relais CAF,20 Rue émile Gabory 44330 Vallet,NR,http://www.caf.fr/,NR,NR,NR,NR,NR,NR,gratuit,G,NR,NR,NR,,,47.162579,-1.26869,20 Rue Emile Gabory 44330 Vallet
conum_47_,44 160,44,Loire-Atlantique,Bibliothèque,2 Rue du Mortier Plat 44160 Sainte-Anne-sur-Brivet,02 40 04 08 76,http://www.sainte-anne-sur-brivet.fr/bibliotheque,NR,NR,Bibliothèque qui propose l'emprunt ou la lecture sur place de divers supports culturels + accompagnement individuel sur demande des personnes,LeAc-PrMa-PrLo-PrIn-DeAd-ApLo-ApIn-CuNu,InitiationsFormation individuellesFormations collectivesAccompagnements collectifsAccompagnements individuelsAutonomie,FoCo-FoIn-In-AcCo-AcIn-Au,gratuit,G,NR,NR,NR,,,47.458925,-2.005013,2 Rue du Mortier Plat 44160 Sainte-Anne-sur-Brivet
conum_48_,44 160,44,Loire-Atlantique,Bibliothèque de Sainte-Reine-de-Bretagne,7 Rue du Père de Montfort 44160 Sainte-Reine-de-Bretagne,02 47 36 05 77,www.cc-paysdepontchateau.fr/contacts/bibliotheque-de-sainte-reine-de-bretagne-2/,NR,NR,Bibliothèque qui propose l'emprunt ou la lecture sur place de divers supports culturels + accompagnement individuel sur demande des personnes,LeAc-PrMa-PrLo-PrIn-DeAd-ApLo-ApIn-CuNu,InitiationsFormation individuellesFormations collectivesAccompagnements collectifsAccompagnements individuelsAutonomie,FoCo-FoIn-In-AcCo-AcIn-Au,gratuit,G,NR,NR,NR,,,47.440635,-2.190881,7 Rue du Père de Montfort 44160 Sainte-Reine-de-Bretagne
conum_49_,44 160,44,Loire-Atlantique,Médiathèque de Crossac,Impasse des Petits Matelots 44160 Crossac,02 28 01 76 72,http://www.cc-paysdepontchateau.fr/contacts/bibliotheque-de-crossac-2,NR,NR,Médiathèque qui propose l'emprunt ou la lecture sur place de divers supports culturels + accompagnement individuel sur demande des personnes,LeAc-PrMa-PrLo-PrIn-DeAd-ApLo-ApIn-CuNu,InitiationsFormation individuellesFormations collectivesAccompagnements collectifsAccompagnements individuelsAutonomie,FoCo-FoIn-In-AcCo-AcIn-Au,gratuit,G,NR,NR,NR,,,47.411034,-2.172382,Impasse des Petits Matelots 44160 Crossac
conum_50_,44 160,44,Loire-Atlantique,Médiathèque de Pont-château,3 Rue du Chène Vert 44160 Pontchâteau,02 40 56 96 95,http://www.cc-paysdepontchateau.fr/contacts/mediatheque-de-pont-chateau,NR,NR,Médiathèque qui propose l'emprunt ou la lecture sur place de divers supports culturels + accompagnement individuel sur demande des personnes,LeAc-PrMa-PrLo-PrIn-DeAd-ApLo-ApIn-CuNu,InitiationsFormation individuellesFormations collectivesAccompagnements collectifsAccompagnements individuelsAutonomie,FoCo-FoIn-In-AcCo-AcIn-Au,Gratuit,G,NR,NR,NR,,,47.431457,-2.075387,3 Rue du Chêne Vert 44160 Pontchâteau
conum_51_,44 160,44,Loire-Atlantique,Médiathèque Georges Sand,25 Rue de la Mairie 44160 Besné,0 810 25 44 10,http://mediatheque.besne.fr,NR,NR,Médiathèque qui propose l'emprunt ou la lecture sur place de divers supports culturels + accompagnement individuel sur demande des personnes,LeAc-PrMa-PrLo-PrIn-DeAd-ApLo-ApIn-CuNu,InitiationsFormation individuellesFormations collectivesAccompagnements collectifsAccompagnements individuelsAutonomie,FoCo-FoIn-In-AcCo-AcIn-Au,Gratuit,G,NR,NR,NR,,,47.39653,-2.09208,25 Rue de la Mairie 44160 Besné
conum_52_,44 160,44,Loire-Atlantique,Relais CAF,7 Place de l'église 44160 Pontchâteau,02 40 31 47 61,https://www.loire-atlantique.fr/jcms/classement-des-contenus/par-territoire/communaute-de-communes-du-pays-de-pont-chateau-saint-gildas-des-bois/caf-relais-de-pontchateau-fr-p2_638495,NR,NR,Démarches administratives en ligneConseils,DeAd-Co,Accompagnements individuelsAutonomie,AcIn-Au,gratuit,G,NR,NR,NR,,,47.438199,-2.089303,7 Place de l'Eglise 44160 Pontchâteau
conum_53_,44 160,44,Loire-Atlantique,Service emploi de Pontchâteau,2 Rue des Châtaigniers 44160 Pontchâteau,NR,https://www.cc-paysdepontchateau.fr/emploi-orientation/vous-avez-plus-de-26-ans/,NR,NR,Démarches administratives en ligneConseils,DeAd-Co,Accompagnements individuelsAutonomie,AcIn-Au,gratuit,G,NR,NR,NR,,,47.440489,-2.102636,2 Rue des Châtaigniers 44160 Pontchâteau
conum_54_,44 170,44,Loire-Atlantique,Bibliothèque d'Abbaretz,8 Rue des écoles 44170 Abbaretz,02 40 78 51 38,http://www.cc-nozay-bibliotheques.fr/index/index/id_profil/1,NR,NR,Bibliothèque qui propose l'emprunt ou la lecture sur place de divers supports culturels + accompagnement individuel sur demande des personnes,LeAc-PrMa-PrLo-PrIn-DeAd-ApLo-ApIn-CuNu,InitiationsFormation individuellesFormations collectivesAccompagnements collectifsAccompagnements individuelsAutonomie,FoCo-FoIn-In-AcCo-AcIn-Au,Tarif -20 ans : gratuit. Tarif + 20 ans : 7.00€. Tarif + 20 ans hors Communauté de Communes de la Région de Nozay :10.00 €,CondP,NR,NR,NR,,,47.552072,-1.532326,8 Rue des Ecoles 44170 Abbaretz
conum_55_,44 170,44,Loire-Atlantique,Bibliothèque de la grigonnais,5 Rue de l'Abbé- Merel 44170 La Grigonnais,02 40 02 35 50,https://www.lagrigonnais.fr/Bibliotheque-de-la-Grigonnais-Le,NR,NR,Bibliothèque qui propose l'emprunt ou la lecture sur place de divers supports culturels + accompagnement individuel sur demande des personnes,LeAc-PrMa-PrLo-PrIn-DeAd-ApLo-ApIn-CuNu,InitiationsFormation individuellesFormations collectivesAccompagnements collectifsAccompagnements individuelsAutonomie,FoCo-FoIn-In-AcCo-AcIn-Au,inscription pour l’emprunt de livre ou document :10€ pour une famille et 6€ individuellement,NR,NR,NR,NR,,,47.526399,-1.66738,5 Rue de l'Abbe Merel 44170 La Grigonnais
conum_56_,44 170,44,Loire-Atlantique,Bibliotheque de Nozay,21 Rue Alexis Letourneau 44170 Nozay,3949,http://www.cc-nozay-bibliotheques.fr/index/index/id_profil/1,NR,NR,Bibliothèque qui propose l'emprunt ou la lecture sur place de divers supports culturels + accompagnement individuel sur demande des personnes,LeAc-PrMa-PrLo-PrIn-DeAd-ApLo-ApIn-CuNu,InitiationsFormation individuellesFormations collectivesAccompagnements collectifsAccompagnements individuelsAutonomie,FoCo-FoIn-In-AcCo-AcIn-Au,-20 Ans :gratuit + 20Ans:7€+20 Hors CCRN:10€,CondP,NR,NR,NR,,,47.564644,-1.62652,21 Rue Alexis Letourneau 44170 Nozay
conum_57_,44 170,44,Loire-Atlantique,Bibliothèque de Tréffieux,2 Place Saint-Grégoire 44170 Treffieux,02 40 87 65 02,http://www.cc-nozay-bibliotheques.fr/index/index/id_profil/1,NR,NR,Bibliothèque qui propose l'emprunt ou la lecture sur place de divers supports culturels + accompagnement individuel sur demande des personnes,LeAc-PrMa-PrLo-PrIn-DeAd-ApLo-ApIn-CuNu,InitiationsFormation individuellesFormations collectivesAccompagnements collectifsAccompagnements individuelsAutonomie,FoCo-FoIn-In-AcCo-AcIn-Au,tarif -20ans gratuit tarif +20ans:7.00€ tarif+20 hors du CCRN:10 €,CondP,NR,NR,NR,,,47.619608,-1.537584,2 Place Saint-grégoire 44170 Treffieux
conum_58_,44 170,44,Loire-Atlantique,Bibliothèque de Vay,5 Rue Principale 44170 Vay,02 40 79 35 12,http://www.cc-nozay-bibliotheques.fr/index/index/id_profil/1,NR,NR,Bibliothèque qui propose l'emprunt ou la lecture sur place de divers supports culturels + accompagnement individuel sur demande des personnes,LeAc-PrMa-PrLo-PrIn-DeAd-ApLo-ApIn-CuNu,InitiationsFormation individuellesFormations collectivesAccompagnements collectifsAccompagnements individuelsAutonomie,FoCo-FoIn-In-AcCo-AcIn-Au,-20ans:gratuit tarif +20ans:7€ habitant CCRN et 10€ Hors,NR,NR,NR,NR,,,47.554607,-1.701621,5 Rue Principale 44170 Vay
conum_59_,44 170,44,Loire-Atlantique,CSC lamano de Nozay,Le Patis Jourdeau 44170 Nozay,02 47 62 78 81,http://lamano.centres-sociaux.fr/,NR,NR,NR,NR,NR,NR,adhésion individuelle -18 ans: 8€ adhésion individuelle +18 ans : 10€ adhésion familiale : 15€,CondP,NR,NR,NR,,,47.56188,-1.622391,Le Pâtis Jourdeau 44170 Nozay
conum_60_,44 170,44,Loire-Atlantique,Cyber-base emploi de Nozay,9 Rue de l'église 44170 Nozay,3646,http://annuaire.mediation-numerique.fr/epn_4851.html,NR,NR,Bibliothèque qui propose l'emprunt ou la lecture sur place de divers supports culturels + accompagnement individuel sur demande des personnes,LeAc-PrMa-PrLo-PrIn-DeAd-ApLo-ApIn-CuNu,InitiationsFormation individuellesFormations collectivesAccompagnements collectifsAccompagnements individuelsAutonomie,FoCo-FoIn-In-AcCo-AcIn-Au,NR,NR,NR,NR,NR,,,47.565797,-1.625008,9 Rue de l'Eglise 44170 Nozay
conum_61_,44 170,44,Loire-Atlantique,Cybercentre de Nozay,16 Route de Nort Sur Erdre 44170 Nozay,NR,https://www.cc-nozay.fr/cybercentre/,NR,NR,Médiathèque qui propose l'emprunt ou la lecture sur place de divers supports culturels + accompagnement individuel sur demande des personnes,LeAc-PrMa-PrLo-PrIn-DeAd-ApLo-ApIn-CuNu,InitiationsFormation individuellesFormations collectivesAccompagnements collectifsAccompagnements individuelsAutonomie,FoCo-FoIn-In-AcCo-AcIn-Au,Accès libre gratuit,NR,NR,NR,NR,,,47.561189,-1.623635,16 Route de Nort-sur-erdre 44170 Nozay
conum_62_,44 170,44,Loire-Atlantique,Médiathèque de Jans,12 Route de Nozay 44170 Jans,NR,http://www.biblios-ccsd.net/cms/articleview/id/121,NR,NR,Médiathèque qui propose l'emprunt ou la lecture sur place de divers supports culturels + accompagnement individuel sur demande des personnes,LeAc-PrMa-PrLo-PrIn-DeAd-ApLo-ApIn-CuNu,InitiationsFormation individuellesFormations collectivesAccompagnements collectifsAccompagnements individuelsAutonomie,FoCo-FoIn-In-AcCo-AcIn-Au,Gratuit,G,NR,NR,NR,,,47.621228,-1.614444,12 Route de Nozay 44170 Jans
conum_63_,44 170,44,Loire-Atlantique,Médiathèque de Marsac-sur-Don,18 Rue Saint-Martin 44170 Marsac-sur-Don,NR,https://mediatheques.cc-chateaubriant-derval.fr/accueil/marsac_sur_don,NR,NR,Médiathèque qui propose l'emprunt ou la lecture sur place de divers supports culturels + accompagnement individuel sur demande des personnes,LeAc-PrMa-PrLo-PrIn-DeAd-ApLo-ApIn-CuNu,InitiationsFormation individuellesFormations collectivesAccompagnements collectifsAccompagnements individuelsAutonomie,FoCo-FoIn-In-AcCo-AcIn-Au,wifi gratuite,NR,NR,NR,NR,,,47.596953,-1.677235,18 Rue Saint Martin 44170 Marsac-sur-Don
conum_64_,44 190,44,Loire-Atlantique,Caisse d'Allocations Familiales,2 Rue du Docteur Doussin 44190 Clisson,NR,http://www.caf.fr/allocataires/caf-de-loire-atlantique/actualites,NR,NR,Démarches administratives en ligneConseils,DeAd-Co,Accompagnements individuelsAutonomie,AcIn-Au,gratuit,G,NR,NR,NR,,,47.092043,-1.290544,2 Rue du Docteur Doussain 44190 Clisson
conum_65_,44 190,44,Loire-Atlantique,CoworKlisson,1 Route de Saint-Fiacre 44190 Gorges,NR,https://coworklisson.fr/,NR,NR,Prise en main du matérielPrise en main des logiciels de basePremiers pas sur internetDémarches administratives en ligneApprofondissement logicielsApprofondissement internetCulture numériqueConseils,PrMa-PrLo-PrIn-DeAd-ApLo-ApIn-CuNu-Co,InitiationsFormation individuellesFormations collectivesAccompagnements collectifsAccompagnements individuelsAutonomie,FoCo-FoIn-In-AcCo-AcIn-Au,gratuit,G,NR,NR,NR,,,47.100089,-1.306367,1 Route de Saint-fiacre 44190 Gorges
conum_66_,44 190,44,Loire-Atlantique,Gullivigne,Esplanade de Klettgau 44190 Clisson,02 40 41 61 80,https://gullivigne.org,NR,NR,Association d'utilisateurs de logiciels libres  Atelier débutants bureautique,Co,InitiationsFormation individuellesFormations collectivesAccompagnements collectifsAccompagnements individuelsAutonomie,FoCo-FoIn-In-AcCo-AcIn-Au,gratuit,G,NR,NR,NR,,,47.094181,-1.290447,Esplanade de Klettgau 44190 Clisson
conum_67_,44 190,44,Loire-Atlantique,La récupérette,4 Rue des Châtaigniers 44190 Clisson,NR,https://larecuperette.jimdofree.com/,NR,NR,Recyclerie,Co,InitiationsFormation individuellesFormations collectivesAccompagnements collectifsAccompagnements individuelsAutonomie,FoCo-FoIn-In-AcCo-AcIn-Au,gratuit,G,NR,NR,NR,,,47.077672,-1.282695,4 Rue des Châtaigniers 44190 Clisson
conum_68_,44 190,44,Loire-Atlantique,Médiathèque Geneviève Couteaux,1 Place Saint-Jacques 44190 Clisson,NR,https://mediatheque-clisson.net,NR,NR,Espace de lecture et documentation offrant un service numérique,LeAc,InitiationsFormation individuellesFormations collectivesAccompagnements collectifsAccompagnements individuelsAutonomie,FoCo-FoIn-In-AcCo-AcIn-Au,gratuit,G,NR,NR,NR,,,47.087877,-1.28351,1 Place Saint-jacques 44190 Clisson
conum_69_,44 190,44,Loire-Atlantique,Mission locale du Vignoble Nantais,3 Place Maurice Renoul 44190 Gorges,NR,http://www.missionlocalevignoblenantais.fr/,NR,NR,Démarches administratives en ligneConseils,DeAd-Co,Accompagnements individuelsAutonomie,AcIn-Au,gratuit,G,NR,NR,NR,,,47.101674,-1.303662,3 Place Maurice Renoul 44190 Gorges
conum_70_,44 190,44,Loire-Atlantique,Pôle Emploi Clisson,7 Allée du Chantre 44190 Clisson,NR,NR,NR,NR,Démarches administratives en ligneConseils,DeAd-Co,InitiationsFormation individuellesFormations collectivesAccompagnements collectifsAccompagnements individuelsAutonomie,FoCo-FoIn-In-AcCo-AcIn-Au,gratuit,G,NR,NR,NR,,,47.096615,-1.284243,7 Allée du Chantre 44190 Clisson
conum_71_,44 200,44,Loire Atlantique,CAP Jeunes,23 rue Louis Joxe 44200 NANTES,02 40 78 06 79,http://www.adelis.asso.fr/accompagnement-social.php,Morgan PRIGENT,morgan.prigent@adelis.asso.fr,Prise en main du matérielPrise en main des logiciels de basePrise en main des logiciels de basePremiers pas sur internetDémarches administratives en ligneApprofondissement logicielsApprofondissement internetCulture numérique,PrMa-PrLo-PrIn-DeAd-ApLo-ApIn-CuNu,Formations collectivesFormations individuellesInitiationsAccompagnements collectifsAccompagnements individuelsAutonomie,FoCo-FoIn-In-AcCo-AcIn-Au,Gratuit,G,Enfants jeunes,En-J,Non,,,47.205409,-1.544552,23 Rue Louis Joxe 44200 Nantes
conum_72_,44 200,44,Loire-Atlantique,Cyber Espace de Nantes (ACCOORD),2 Rue Conan Mériadec 44200 Nantes,02 40 05 82 82,https://www.accoord.fr/nc_centre/mq-de-lile/,NR,NR,Prise en main du matérielPrise en main des logiciels de basePremiers pas sur internetDémarches administratives en ligneApprofondissement logicielsApprofondissement internetCulture numériqueConseils,PrMa-PrLo-PrIn-DeAd-ApLo-ApIn-CuNu-Co,InitiationsFormation individuellesFormations collectivesAccompagnements collectifsAccompagnements individuelsAutonomie,FoCo-FoIn-In-AcCo-AcIn-Au,gratuit,G,NR,NR,NR,,,47.206672,-1.550772,2 Rue Conan Mériadec 44200 Nantes
conum_73_,44 200,44,Loire-Atlantique,Ecole de la deuxième chance,10 Rue René Viviani 44200 Nantes,02 40 78 99 72,https://www.e2cel.org/,NR,NR,NR,NR,NR,NR,NR,NR,NR,NR,NR,,,47.208719,-1.535502,10 Rue René Viviani 44200 Nantes
conum_74_,44 210,44,Loire-Atlantique,Caisse d'Allocations Familiales,1 BIS Rue Jean Sarment 44210 Pornic,02 40 64 37 34,https://www.caf.fr/,NR,NR,Permanence CAF,DeAd-Co,NR,NR,NR,NR,NR,NR,NR,43953,,47.124345,-2.111678,1 bis Rue Jean Sarment 44210 Pornic
conum_75_,44 210,44,Loire-Atlantique,CCAS Pornic,1 Rue Jean Sarment 44210 Pornic,NR,http://www.pornic.fr/Informations/Annuaires/Annuaire-des-services-publics-locaux/Service-des-Affaires-Sociales,NR,NR,NR,NR,NR,NR,gratuit,G,NR,NR,NR,17/06/2020,,47.123972,-2.112024,1 Rue Jean Sarment 44210 Pornic
conum_76_,44 210,44,Loire-Atlantique,Centre Médico-Social,21 route de Saint-Père-en-Retz 44210 Pornic,02 40 04 76 99,https://www.loire-atlantique.fr/jcms/classement-des-contenus/lieux/selectionner-un-theme/enfance-famille/grossesse-et-conseils-aux-futurs-parents/espace-departemental-des-solidarites-pornic-sainte-pazanne-site-de-pornic-fr-t1_13306,NR,NR,Démarches administratives en ligneConseils,DeAd-Co,InitiationsFormation individuellesFormations collectivesAccompagnements collectifsAccompagnements individuelsAutonomie,FoCo-FoIn-In-AcCo-AcIn-Au,gratuit,G,NR,NR,NR,,,47.120976,-2.100325,21 Route de Saint Pere En Retz 44210 Pornic
conum_77_,44 210,44,Loire-Atlantique,Cybercentre de Pornic -Médiathèque,35 Rue Tartifume 44210 Pornic,02 40 15 64 16,http://www.mediatheque-pornic.fr/EXPLOITATION/Default/esp-cybercentre.aspx,NR,NR,Prise en main du matérielPrise en main des logiciels de basePremiers pas sur internetDémarches administratives en ligneApprofondissement logicielsApprofondissement internetCulture numériqueConseils,PrMa-PrLo-PrIn-DeAd-ApLo-ApIn-CuNu-Co,InitiationsFormation individuellesFormations collectivesAccompagnements collectifsAccompagnements individuelsAutonomie,FoCo-FoIn-In-AcCo-AcIn-Au,NR,NR,NR,NR,NR,,,47.116741,-2.100931,35 Rue Tartifume 44210 Pornic
conum_78_,44 210,44,Loire-Atlantique,Cybercentre Pornic,35 Rue Tartifume 44210 Pornic,02 40 42 96 76,http://www.mediatheque-pornic.fr/,NR,NR,Prise en main du matérielPrise en main des logiciels de basePremiers pas sur internetDémarches administratives en ligneApprofondissement logicielsApprofondissement internetCulture numériqueConseils,PrMa-PrLo-PrIn-DeAd-ApLo-ApIn-CuNu-Co,InitiationsFormation individuellesFormations collectivesAccompagnements collectifsAccompagnements individuelsAutonomie,FoCo-FoIn-In-AcCo-AcIn-Au,il faut être abonné à la médiathèque et rêgler sur place si ateliers payants.,CondP,NR,NR,NR,,,47.116741,-2.100931,35 Rue Tartifume 44210 Pornic
conum_79_,44 210,44,Loire-Atlantique,Pôlle Emploi,62 Boulevard de Linz 44210 Pornic,08 10 25 44 10,https://www.pole-emploi.fr/,NR,NR,Démarches administratives en ligneConseils,DeAd-Co,InitiationsFormation individuellesFormations collectivesAccompagnements collectifsAccompagnements individuelsAutonomie,FoCo-FoIn-In-AcCo-AcIn-Au,NR,NR,NR,NR,NR,,,47.12195,-2.114091,62 Boulevard de Linz 44210 Pornic
conum_80_,44 230,44,Loire-Atlantique,Centre Socioculturel de l'Allée Verte,1 Rue de l'Allée Verte 44230 Saint-Sébastien-sur-Loire,02 40 86 97 35,https://alleeverte.centres-sociaux.fr/,NR,accueil@alleeverte-csc.asso.fr,Prise en main du matérielPrise en main des logiciels de basePremiers pas sur internetDémarches administratives en ligneApprofondissement logicielsApprofondissement internetCulture numériqueConseils,PrMa-PrLo-PrIn-DeAd-ApLo-ApIn-CuNu-Co,InitiationsFormation individuellesFormations collectivesAccompagnements collectifsAccompagnements individuelsAutonomie,FoCo-FoIn-In-AcCo-AcIn-Au,Gratuit sous conditions-Payant à coût solidaire,CondP,Jeunes-Adultes-Personnes âgées-Famille/enfant,Tp,NR,,,47.195805,-1.487956,Rue de l'Allée Verte 44230 Saint-Sébastien-sur-Loire
conum_81_,44 240,44,LOIRE-ATLANTIQUE,Espace Médiation Numérique de la Chapelle sur Erdre,8 rue François Clouet,NR,NR,CHEDOTAL Sarah,sarah.chedotal@lachapellesurerdre.fr,Démarches administratives,DeAd,Accompagnements individuels,AcIn,Gratuit,G,Tous publics,Tp,Non,,,49.516982,0.073672,8 Rue François Clouet 76620 Le Havre
conum_82_,44 240,44,Loire-Atlantique,Médiathèque et ludothèque,Rue René Goscinny 44240 La Chapelle-sur-Erdre,02 40 57 82 20,NR,NR,NR,Prise en main du matérielPrise en main des logiciels de basePremiers pas sur internetDémarches administratives en ligneApprofondissement logicielsApprofondissement internetCulture numériqueConseils,PrMa-PrLo-PrIn-DeAd-ApLo-ApIn-CuNu-Co,InitiationsFormation individuellesFormations collectivesAccompagnements collectifsAccompagnements individuelsAutonomie,FoCo-FoIn-In-AcCo-AcIn-Au,NR,NR,NR,NR,NR,,,47.310427,-1.547685,Rue René Goscinny 44240 La Chapelle-sur-Erdre
conum_83_,44 240,44,Loire-Atlantique,Médiathèque Sucé-Sur-Erdre,101 Rue de la Mairie 44240 Sucé-sur-Erdre,02 40 98 33 89,http://www.bibliotheques.cceg.fr/index/index/id_profil/1,NR,NR,Prise en main du matérielPrise en main des logiciels de basePremiers pas sur internetDémarches administratives en ligneApprofondissement logicielsApprofondissement internetCulture numériqueConseils,PrMa-PrLo-PrIn-DeAd-ApLo-ApIn-CuNu-Co,InitiationsFormation individuellesFormations collectivesAccompagnements collectifsAccompagnements individuelsAutonomie,FoCo-FoIn-In-AcCo-AcIn-Au,-Gratuit pour les nouveaux Sucéens-Famille Sucéenne 10€ -Famille non Sucéenne 20€ Touriste (individuel) 5€,G,NR,NR,NR,,,47.340042,-1.526222,101 Rue de la Mairie 44240 Sucé-sur-Erdre
conum_84_,44 250,44,Loire-Atlantique,Espace départemental des solidarités Saint-Brévin-les-Pins,8 Rue de la Résistance 44250 Saint-Brevin-les-Pins,02 40 98 63 94,https://www.loire-atlantique.fr/jcms/classement-des-contenus/lieux/selectionner-un-theme/enfance-famille/grossesse-et-conseils-aux-futurs-parents/espace-departemental-des-solidarites-saint-brevin-les-pins-fr-t1_11246,NR,NR,Démarches administratives en ligneConseils,DeAd-Co,InitiationsFormation individuellesFormations collectivesAccompagnements collectifsAccompagnements individuelsAutonomie,FoCo-FoIn-In-AcCo-AcIn-Au,gratuit,G,NR,NR,NR,,,47.246503,-2.168188,8 Rue de la Résistance 44250 Saint-Brevin-les-Pins
conum_85_,44 250,44,Loire-Atlantique,Guichet Unique Emploi St-Brévin-les-Pins,6 Avenue Jules Ferry 44250 Saint-Brevin-les-Pins,02 40 11 55 38,http://saint-brevin.fr/mairie/guichet-unique-emploi.html,NR,NR,Démarches administratives en ligneConseils,DeAd-Co,InitiationsFormation individuellesFormations collectivesAccompagnements collectifsAccompagnements individuelsAutonomie,FoCo-FoIn-In-AcCo-AcIn-Au,gratuit,G,NR,NR,NR,,,47.248211,-2.165859,6 Avenue Jules Ferry 44250 Saint-Brevin-les-Pins
conum_86_,44 250,44,Loire-Atlantique,Médiathèque Espace Jules Verne,30 Avenue Jules Verne 44250 Saint-Brevin-les-Pins,02 51 73 22 22,NR,NR,NR,Prise en main du matérielPrise en main des logiciels de basePremiers pas sur internetDémarches administratives en ligneApprofondissement logicielsApprofondissement internetCulture numériqueConseils,PrMa-PrLo-PrIn-DeAd-ApLo-ApIn-CuNu-Co,InitiationsFormation individuellesFormations collectivesAccompagnements collectifsAccompagnements individuelsAutonomie,FoCo-FoIn-In-AcCo-AcIn-Au,gratuit,G,NR,NR,NR,,,47.246741,-2.168529,30 Avenue Jules Verne 44250 Saint-Brevin-les-Pins
conum_87_,44 260,44,Loire-Atlantique,Bouillon de Cultures Malville,8 Place de l'église 44260 Malville,02 40 79 28 12,http://www.bouillondecultures44.fr,NR,NR,NR,NR,NR,NR,60€ par an,CondP,NR,NR,NR,,,47.360577,-1.863804,8 Place de l'Eglise 44260 Malville
conum_88_,44 260,44,Loire-Atlantique,Médiathèque de Bouée,8 Place de l'église 44260 Bouée,02 51 81 56 62,http://www.mediatheques.estuaire-sillon.fr/bouee,Médiathèque intercommunale d'Estuaire et Sillon,NR,Prise en main du matérielPrise en main des logiciels de basePremiers pas sur internetDémarches administratives en ligneApprofondissement logicielsApprofondissement internetCulture numériqueConseils,PrMa-PrLo-PrIn-DeAd-ApLo-ApIn-CuNu-Co,InitiationsFormation individuellesFormations collectivesAccompagnements collectifsAccompagnements individuelsAutonomie,FoCo-FoIn-In-AcCo-AcIn-Au,gratuit,G,NR,NR,NR,,,47.319318,-1.910064,8 Place de l'Eglise 44260 Bouée
conum_89_,44 260,44,Loire-Atlantique,Médiathèque de la Chapelle-Launay,1 Rue du Sacré-Coeur 44260 La Chapelle-Launay,NR,http://www.lachapellelaunay.eu/-Bibliotheque-du-Moulin,NR,NR,Prise en main du matérielPrise en main des logiciels de basePremiers pas sur internetDémarches administratives en ligneApprofondissement logicielsApprofondissement internetCulture numériqueConseils,PrMa-PrLo-PrIn-DeAd-ApLo-ApIn-CuNu-Co,InitiationsFormation individuellesFormations collectivesAccompagnements collectifsAccompagnements individuelsAutonomie,FoCo-FoIn-In-AcCo-AcIn-Au,gratuit,G,NR,NR,NR,,,47.370807,-1.971237,1 Rue du Sacré-coeur 44260 La Chapelle-Launay
conum_90_,44 260,44,Loire-Atlantique,Médiathèque de Lavau-sur-Loire,1 BIS Rue de la Mairie 44260 Lavau-sur-Loire,02 40 29 51 90,http://mediatheques.estuaire-sillon.fr/lavausurloire,NR,NR,Prise en main du matérielPrise en main des logiciels de basePremiers pas sur internetDémarches administratives en ligneApprofondissement logicielsApprofondissement internetCulture numériqueConseils,PrMa-PrLo-PrIn-DeAd-ApLo-ApIn-CuNu-Co,InitiationsFormation individuellesFormations collectivesAccompagnements collectifsAccompagnements individuelsAutonomie,FoCo-FoIn-In-AcCo-AcIn-Au,gratuit,G,NR,NR,NR,,,47.306235,-1.967544,1 bis Rue de la Mairie 44260 Lavau-sur-Loire
conum_91_,44 260,44,Loire-Atlantique,Médiathèque de Malville,8 Place de l'église 44260 Malville,NR,NR,NR,NR,Prise en main du matérielPrise en main des logiciels de basePremiers pas sur internetDémarches administratives en ligneApprofondissement logicielsApprofondissement internetCulture numériqueConseils,PrMa-PrLo-PrIn-DeAd-ApLo-ApIn-CuNu-Co,InitiationsFormation individuellesFormations collectivesAccompagnements collectifsAccompagnements individuelsAutonomie,FoCo-FoIn-In-AcCo-AcIn-Au,Accès imprimante payante,CondP,NR,NR,NR,,,47.360577,-1.863804,8 Place de l'Eglise 44260 Malville
conum_92_,44 260,44,Loire-Atlantique,Médiathèque de Prinquiau,16 Rue de l'église 44260 Prinquiau,02 28 25 29 40,http://www.mediatheques.estuaire-sillon.fr/prinquiau,NR,NR,Prise en main du matérielPrise en main des logiciels de basePremiers pas sur internetDémarches administratives en ligneApprofondissement logicielsApprofondissement internetCulture numériqueConseils,PrMa-PrLo-PrIn-DeAd-ApLo-ApIn-CuNu-Co,InitiationsFormation individuellesFormations collectivesAccompagnements collectifsAccompagnements individuelsAutonomie,FoCo-FoIn-In-AcCo-AcIn-Au,gratuit,G,NR,NR,NR,,,47.362372,-2.009906,16 Rue de l'Eglise 44260 Prinquiau
conum_93_,44 260,44,Loire-Atlantique,Médiathèque de Savenay,Place de l'Hôtel de Ville 44260 Savenay,02 28 25 29 40,http://www.mediatheques.estuaire-sillon.fr/savenay,NR,NR,Prise en main du matérielPrise en main des logiciels de basePremiers pas sur internetDémarches administratives en ligneApprofondissement logicielsApprofondissement internetCulture numériqueConseils,PrMa-PrLo-PrIn-DeAd-ApLo-ApIn-CuNu-Co,InitiationsFormation individuellesFormations collectivesAccompagnements collectifsAccompagnements individuelsAutonomie,FoCo-FoIn-In-AcCo-AcIn-Au,gratuit,G,NR,NR,NR,,,47.359596,-1.943312,Place de l'Hôtel de Ville 44260 Savenay
conum_94_,44 260,44,Loire-Atlantique,Relais CAF,3 Rue des Mésanges 44260 Savenay,NR,https://www.loire-atlantique.fr/jcms/classement-des-contenus/lieux/lieux-d-info-habitat-logement/par-public/tout-public/caf-permanence-de-savenay-fr-p2_638500,NR,NR,Démarches administratives en ligneConseils,DeAd-Co,InitiationsFormation individuellesFormations collectivesAccompagnements collectifsAccompagnements individuelsAutonomie,FoCo-FoIn-In-AcCo-AcIn-Au,gratuit,G,NR,NR,NR,,,47.360328,-1.938762,3 Rue des Mésanges 44260 Savenay
conum_95_,44 270,44,Loire-Atlantique,Bibliothèque de Machecoul Saint-Meme La Virgule,7 Rue des Bouchers (Machecoul) 44270 Machecoul-Saint-Mème,NR,https://www.bibliotheque-machecoul.fr/,La cyber-base est au sein de la bibliothèque de Machecoul,ateliers payants : 3€/atelier pour les machecoulais / 4€/atelier pour les communes extérieures,Prise en main du matérielPrise en main des logiciels de basePremiers pas sur internetDémarches administratives en ligneApprofondissement logicielsApprofondissement internetCulture numériqueConseils,PrMa-PrLo-PrIn-DeAd-ApLo-ApIn-CuNu-Co,InitiationsFormation individuellesFormations collectivesAccompagnements collectifsAccompagnements individuelsAutonomie,FoCo-FoIn-In-AcCo-AcIn-Au,ateliers payants : 3€/atelier pour les machecoulais / 4€/atelier pour les communes extérieures,CondP,NR,NR,NR,,,46.992051,-1.820298,7 Rue des Bouchers 44270 Machecoul-Saint-Même
conum_96_,44 270,44,Loire-Atlantique,CPAM Machecoul,16 Rue Alexandre Riou (Machecoul) 44270 Machecoul-Saint-Mème,02 28 25 29 40,NR,NR,NR,Démarches administratives en ligneConseils,DeAd-Co,InitiationsAccompagnements individuelsAutonomie,In-AcIn-Au,gratuit,G,NR,NR,NR,,,46.993278,-1.818278,16 Rue Alexandre Riou 44270 Machecoul-Saint-Même
conum_97_,44 270,44,Loire-Atlantique,Espace départemental des solidarités,Boulevard des Prises (Machecoul) 44270 Machecoul-Saint-Mème,02 40 01 72 86,https://www.loire-atlantique.fr/jcms/classement-des-contenus/lieux/selectionner-un-theme/enfance-famille/grossesse-et-conseils-aux-futurs-parents/espace-departemental-des-solidarites-machecoul-saint-meme-saint-philbert-de-grand-lieu-site-de-machecoul-saint-meme-fr-t1_11265,NR,NR,Démarches administratives en ligneConseils,DeAd-Co,InitiationsAccompagnements individuelsAutonomie,In-AcIn-Au,gratuit,G,NR,NR,NR,,,46.995696,-1.815941,Boulevard des Prises 44270 Machecoul-Saint-Même
conum_98_,44 270,44,Loire-Atlantique,Mairie Machecoul,5 Place de l'Auditoire (Machecoul) 44270 Machecoul-Saint-Mème,02 40 53 97 98,http://www.machecoul-saint-meme.fr/,NR,NR,Démarches administratives en ligneConseils,DeAd-Co,InitiationsFormation individuellesFormations collectivesAccompagnements collectifsAccompagnements individuelsAutonomie,FoCo-FoIn-In-AcCo-AcIn-Au,gratuit,G,NR,NR,NR,,,46.992397,-1.817506,5 Place de l'Auditoire 44270 Machecoul-Saint-Même
conum_99_,44 270,44,Loire-Atlantique,Pôle Emploi Machecoul,19 Rue Marcel Brunelière (Machecoul) 44270 Machecoul-Saint-Mème,02 40 88 86 94,https://www.pole-emploi.fr/accueil/,NR,NR,Démarches administratives en ligneConseils,DeAd-Co,InitiationsAccompagnements individuelsAutonomie,In-AcIn-Au,gratuit,G,NR,NR,NR,,,46.986249,-1.812922,19 Rue Marcel Brunelière 44270 Machecoul-Saint-Même
conum_100_,44 290,44,Loire-Atlantique,Bibliothèque de Conquereuil,Place de l'église 44290 Conquereuil,02 40 88 90 01,http://mediatheques.redon-agglomeration.bzh/index.php?option=com_content&view=article&id=46:conquereuil&catid=14:vos-mediatheques&Itemid=72,NR,NR,NR,NR,NR,NR,gratuit,G,NR,NR,NR,,,47.624605,-1.751116,Place de l'Eglise 44290 Conquereuil
conum_101_,44 290,44,Loire-Atlantique,Bibliothèque de Masserac,1 Rue Saint-Benoit 44290 Massérac,NR,http://mediatheques.redon-agglomeration.bzh/index.php?option=com_content&view=article&id=490:masserac&catid=14:vos-mediatheques&Itemid=33,NR,NR,Espace de lecture et d'accès numérique.,LeAc-CuNu,InitiationsAccompagnements individuelsAutonomie,In-AcIn-Au,gratuit,G,NR,NR,NR,,,47.673075,-1.916476,1 Rue Saint Benoit 44290 Massérac
conum_102_,44 290,44,Loire-Atlantique,Médiathèque Marcelle Maurette,5 Rue Saint-Jean 44290 Guémené-Penfao,NR,NR,NR,NR,Espace de lecture et d'accès numérique.,LeAc-CuNu,InitiationsAccompagnements individuelsAutonomie,In-AcIn-Au,14€ annuel / gratuit : -18 ans,CondP,bénéficiaires minima sociaux et demandeurs d'emploi,De,NR,,,47.627881,-1.833236,5 Rue Saint Jean 44290 Guémené-Penfao
conum_103_,44 290,44,Loire-Atlantique,Point d'accueil CPAM Guémené-Penfao,2 Rue de Besle 44290 Guémené-Penfao,02 40 42 42 00,https://www.ameli.fr,NR,NR,Démarches administratives en ligneConseils,DeAd-Co,InitiationsAccompagnements individuelsAutonomie,In-AcIn-Au,gratuit,G,NR,NR,NR,,,47.628763,-1.833911,2 Rue de Beslé 44290 Guémené-Penfao
conum_104_,44 300,44,Loire-Atlantique,Alis 44,60 Rue de la Bottière 44300 Nantes,02 40 88 90 01,http://www.alis44.org/,NR,NR,Démarches administratives en ligneConseils,DeAd-Co,InitiationsAccompagnements individuelsAutonomie,In-AcIn-Au,NR,NR,NR,NR,NR,,,47.239147,-1.519944,60 Rue de la Bottière 44300 Nantes
conum_105_,44 300,44,Loire-Atlantique,Association Culturelle Musulmane Nantes Nord,3 rue Eugène Thomas 44300 Nantes,NR,http://www.acmnn.fr/,NR,NR,Démarches administratives en ligneConseils,DeAd-Co,InitiationsAccompagnements individuelsAutonomie,In-AcIn-Au,NR,NR,NR,NR,NR,,,47.261627,-1.573637,3 Rue Eugène Thomas 44300 Nantes
conum_106_,44 300,44,Loire-Atlantique,L'EclectiC,3 Rue Eugène Thomas 44300 Nantes,NR,https://fr-fr.facebook.com/leclectic.leolagrange,NR,NR,NR,NR,NR,NR,NR,NR,NR,NR,NR,,,47.261627,-1.573637,3 Rue Eugène Thomas 44300 Nantes
conum_107_,44 300,44,Loire-Atlantique,Maison de l'emploi Espace Nord,81 Rue des Renards 44300 Nantes,NR,NR,NR,NR,Réaliser CV et lettres de motivations,DeAd-Co,InitiationsAccompagnements individuelsAutonomie,In-AcIn-Au,NR,NR,NR,NR,NR,,,47.259021,-1.568023,81 Rue des Renards 44300 Nantes
conum_108_,44 300,44,Loire-Atlantique,Maison de l'emploi Est,9 Rue Augustin Fresnel 44300 Nantes,0970 210 889,NR,NR,NR,Démarches administratives en ligneConseils,DeAd-Co,InitiationsAccompagnements individuelsAutonomie,In-AcIn-Au,NR,NR,NR,NR,NR,43953,,47.241731,-1.523723,9 Rue Augustin Fresnel 44300 Nantes
conum_109_,44 300,44,Loire-Atlantique,Maison de quartier La Mano,3 Rue Eugène Thomas 44300 Nantes,NR,https://www.nantes.fr/home/a-votre-service/equipements/maison-de-quartier/maison-de-quartier-la-mano.html,NR,NR,Le bénévole (écrivain public) aide à toute sorte de démarches administratives rédactions de courriers. Accompagnement administratif et numérique. Atlier initiation à l'informatique,DeAd-Co,InitiationsAccompagnements individuelsAutonomie,In-AcIn-Au,NR,NR,NR,NR,NR,,,47.261627,-1.573637,3 Rue Eugène Thomas 44300 Nantes
conum_110_,44 300,44,Loire-Atlantique,Médiathèque Luce Courville,1 Rue Eugène Thomas 44300 Nantes,02 40 33 82 76,https://bm.nantes.fr/home/pratique/adresses-et-horaires-1/mediatheque-luce-courville.html,NR,NR,Démarches administratives en ligneConseils,DeAd-Co,InitiationsAccompagnements individuelsAutonomie,In-AcIn-Au,NR,NR,NR,NR,NR,,,47.261657,-1.574051,1 Rue Eugène Thomas 44300 Nantes
conum_111_,44 300,44,Loire-Atlantique,Point d'accès au droit,3 Rue Eugène Thomas 44300 Nantes,02 40 97 85 92,NR,NR,NR,Démarches administratives en ligneConseils,DeAd-Co,InitiationsAccompagnements individuelsAutonomie,In-AcIn-Au,NR,NR,Le Centre Socioculturel du Bout des pavés reçoit dans l’espace numérique dédié aux jeunes.,J,NR,,,47.261627,-1.573637,3 Rue Eugène Thomas 44300 Nantes
conum_112_,44 300,44,Loire-Atlantique,Pôle emploi Nantes,50 Boulevard Albert Einstein 44300 Nantes,NR,https://www.pole-emploi.fr/accueil/,NR,NR,Prise en main du matérielPrise en main des logiciels de basePremiers pas sur internetDémarches administratives en ligneApprofondissement logicielsApprofondissement internetCulture numériqueConseils,PrMa-PrLo-PrIn-DeAd-ApLo-ApIn-CuNu-Co,InitiationsFormation individuellesAccompagnements individuelsAutonomie,In-FoIn-AcIn-Au,NR,NR,Parents et enfants,Ej-Af,NR,,,47.263329,-1.568553,50 Boulevard Albert Einstein 44300 Nantes
conum_113_,44 310,44,Loire-Atlantique,Cybercentre de Saint-Philbert-de-Grandlieu - ERN,12 Rue de l'Abreuvoir 44310 Saint-Philbert-de-Grand-Lieu,NR,https://www.stphilbert.fr/cybercentre/,NR,NR,Prise en main du matérielPrise en main des logiciels de basePremiers pas sur internetDémarches administratives en ligneApprofondissement logicielsApprofondissement internetCulture numériqueConseils,PrMa-PrLo-PrIn-DeAd-ApLo-ApIn-CuNu-Co,InitiationsFormation individuellesAccompagnements individuelsAutonomie,In-FoIn-AcIn-Au,NR,NR,NR,NR,NR,43953,,47.038969,-1.640966,12 Rue de l'Abreuvoir 44310 Saint-Philbert-de-Grand-Lieu
conum_114_,44 310,44,Loire-Atlantique,Cybercentre St-Philibert de Grand Lieu,12 Rue de l'Abreuvoir 44310 Saint-Philbert-de-Grand-Lieu,02 40 97 35 23,https://www.stphilbert.fr/cybercentre/,NR,cybercentre@stphilbert.fr,Prise en main du matérielPrise en main des logiciels de basePremiers pas sur internetDémarches administratives en ligneApprofondissement logicielsApprofondissement internetCulture numériqueConseils,PrMa-PrLo-PrIn-DeAd-ApLo-ApIn-CuNu-Co,InitiationsFormation individuellesAccompagnements individuelsAutonomie,In-FoIn-AcIn-Au,Payant à coût solidaire,CondP,Adultes-Personnes âgées,Af-S,NR,43953,,47.038969,-1.640966,12 Rue de l'Abreuvoir 44310 Saint-Philbert-de-Grand-Lieu
conum_115_,44 310,44,Loire-Atlantique,Espace Jean de la Fontaine,10 Rue Charles de Gaulle 44310 La Limouzinière,02 40 36 87 76,https://www.mairie-la-limouziniere.com/culture-et-loisirs/espace-jean-de-la-fontaine/,NR,NR,NR,NR,NR,NR,13€ /famille/an,CondP,NR,NR,NR,,,46.992321,-1.597142,10 Rue Charles de Gaulle 44310 La Limouzinière
conum_116_,44 310,44,Loire-Atlantique,Point Numérique CAF,24 Rue de l'Hôtel de Ville 44310 Saint-Philbert-de-Grand-Lieu,02 40 36 50 00,http://www.stphilbert.fr/,NR,NR,Démarches administratives en ligneConseils,DeAd-Co,InitiationsAccompagnements individuelsAutonomie,In-AcIn-Au,NR,NR,NR,NR,NR,,,47.037599,-1.642116,24 Rue de l'Hôtel de Ville 44310 Saint-Philbert-de-Grand-Lieu
conum_117_,44 320,44,Loire-Atlantique,Médiathèque - au bonheur des mots,7 Allée du Théâtre 44320 Chauvé,02 40 33 37 93,http://www.chauve.fr/la.mediatheque-municipale-au-bonheur-des-mots/,NR,NR,Espace de lecture et d'accès numérique.,LeAc-CuNu,InitiationsAccompagnements individuelsAutonomie,In-AcIn-Au,NR,NR,NR,NR,NR,,,47.150664,-1.986067,7 Allée du Théatre 44320 Chauvé
conum_118_,44 330,44,Loire-Atlantique,Médiathèque Mille et une pages,16 Rue émile Gabory 44330 Vallet,02 47 65 24 12,bibliotheques.cc-vallet.fr,NR,NR,Espace de lecture et d'accès numérique.,LeAc-CuNu,InitiationsAccompagnements individuelsAutonomie,In-AcIn-Au,gratuit,G,NR,NR,NR,,,47.16211,-1.268697,16 Rue Emile Gabory 44330 Vallet
conum_119_,44 340,44,Loire-Atlantique,Cybercentre de Bouguenais,33 Avenue du Général de Gaulle 44340 Bouguenais,02 47 64 41 66,http://cybercentrebouguenais.blogspot.com/,NR,cyber.animateur@yahoo.fr,Prise en main du matérielPrise en main des logiciels de basePremiers pas sur internetDémarches administratives en ligneApprofondissement logicielsApprofondissement internetCulture numériqueConseils,PrMa-PrLo-PrIn-DeAd-ApLo-ApIn-CuNu-Co,InitiationsFormation individuellesAccompagnements individuelsAutonomie,In-FoIn-AcIn-Au,gratuit,G,Jeunes-Adultes-Personnes âgées-Famille/enfant,Tp,NR,,,47.177925,-1.618644,33 Avenue du Général de Gaulle 44340 Bouguenais
conum_120_,44 350,44,Loire-Atlantique,Cybercentre de la ville de Guérande,2 avenue Anne De Bretagne 44350 Guérande,02 40 91 01 31,https://www.ville-guerande.fr/pratique-vos-demarches/culture/centre-culturel-athanor/cybercentre,NR,cybercentre@ville-guerande.fr,Prise en main du matérielPrise en main des logiciels de basePremiers pas sur internetDémarches administratives en ligneApprofondissement logicielsApprofondissement internetCulture numériqueConseils,PrMa-PrLo-PrIn-DeAd-ApLo-ApIn-CuNu-Co,InitiationsFormation individuellesFormations collectivesAccompagnements collectifsAccompagnements individuelsAutonomie,FoCo-FoIn-In-AcCo-AcIn-Au,NR,NR,Jeunes-Adultes-Personnes âgées-Famille/enfant,Tp,NR,,,47.331426,-2.427557,2 Avenue Anne de Bretagne 44350 Guérande
conum_121_,44 350,44,Loire-Atlantique,Mission locale de la Presque île Guérandaise,2 Rue Louis léon 44350 Guérande,02 28 56 79 00,http://mlpresquileguerandaise.com,NR,NR,Démarches administratives en ligneConseils,DeAd-Co,InitiationsAccompagnements individuelsAutonomie,In-AcIn-Au,gratuit,G,NR,NR,NR,,,47.337506,-2.433484,2 Rue Louis Eon 44350 Guérande
conum_122_,44 350,44,Loire-Atlantique,Relais CAF,1 Impasse Anne de Bretagne 44350 Guérande,02 40 23 00 70,https://www.loire-atlantique.fr/jcms/classement-des-contenus/par-territoire/communaute-d-agglomeration-cap-atlantique/caf-relais-de-la-presqu-ile-guerandaise-fr-p2_638493,NR,NR,Démarches administratives en ligneConseils,DeAd-Co,InitiationsAccompagnements individuelsAutonomie,In-AcIn-Au,gratuit,G,NR,NR,NR,,,47.331463,-2.426866,Impasse Anne de Bretagne 44350 Guérande
conum_123_,44 360,44,Loire-Atlantique,Bibliothèque de Saint-Etienne de Montluc,3 Rue de la Paix 44360 Saint-étienne-de-Montluc,02 40 24 18 81,bibliotheque.st-etienne-montluc.net,NR,NR,Espace de lecture et d'accès numérique.,LeAc-CuNu,InitiationsAccompagnements individuelsAutonomie,In-AcIn-Au,Commune: 7€30 par an ( + 18 ans) Hors commune: 13€40 (+ 18 ans),CondP,NR,NR,NR,,,47.275267,-1.781321,3 Rue de la Paix 44360 Saint-Étienne-de-Montluc
conum_124_,44 360,44,Loire-Atlantique,Club informatique Micromédia,2 Avenue des Quatre Vents 44360 Cordemais,02 40 24 34 44,https://micromedia-cordemais.jimdofree.com/,NR,NR,Prise en main du matérielPrise en main des logiciels de basePremiers pas sur internetDémarches administratives en ligneApprofondissement logicielsApprofondissement internetCulture numériqueConseils,PrMa-PrLo-PrIn-DeAd-ApLo-ApIn-CuNu-Co,InitiationsFormation individuellesFormations collectivesAccompagnements collectifsAccompagnements individuelsAutonomie,FoCo-FoIn-In-AcCo-AcIn-Au,50€ pour le reste du public,CondP,NR,NR,NR,,,47.290599,-1.877944,2 Avenue des 4 Vents 44360 Cordemais
conum_125_,44 360,44,Loire-Atlantique,Médiathèque Jacques Fairand,2 Avenue des Quatre Vents 44360 Cordemais,0972 723 949,http://www.bmcordemais.cassioweb.com,NR,NR,Espace de lecture et d'accès numérique.,LeAc-CuNu,InitiationsAccompagnements individuelsAutonomie,In-AcIn-Au,gratuit,G,NR,NR,NR,,,47.290599,-1.877944,2 Avenue des 4 Vents 44360 Cordemais
conum_126_,44 370,44,Loire-Atlantique,Bibliothèque L'école buissonnière,Square des Mésanges (Varades) 44370 Loireauxence,06 15 20 96 05,http://bibliofil.pays-ancenis.fr/,NR,NR,Prise en main du matérielPrise en main des logiciels de basePremiers pas sur internetDémarches administratives en ligneConseils,PrMa-PrLo-PrIn-DeAd-Co,InitiationsAccompagnements individuelsAutonomie,In-AcIn-Au,gratuit,G,NR,NR,NR,,,47.389537,-1.027869,Square des Mésanges 44370 Loireauxence
conum_127_,44 370,44,Loire-Atlantique,Pôle Santé Social de Loire Auxence,182 Rue du Mal Foch (Varades) 44370 Loireauxence,02 28 50 44 78,http://www.loireauxence.fr/,NR,NR,Démarches administratives en ligneConseils,DeAd-Co,InitiationsAccompagnements individuelsAutonomie,In-AcIn-Au,gratuit,G,NR,NR,NR,,,47.385893,-1.032294,182 Rue du Maréchal Foch 44370 Loireauxence
conum_128_,44 380,44,Loire-Atlantique,CCAS Pornichet,115 Avenue du Général de Gaulle 44380 Pornichet,02 40 55 17 56,https://www.ville-pornichet.fr/soutien-et-accompagnement,NR,NR,Démarches administratives en ligneConseils,DeAd-Co,InitiationsAccompagnements individuelsAutonomie,In-AcIn-Au,gratuit,G,NR,NR,NR,,,47.26296,-2.33985,115 Avenue du Général de Gaulle 44380 Pornichet
conum_129_,44 380,44,Loire-Atlantique,Médiathèque Jacques Lambert,Avenue de la Mer 44380 Pornichet,02 40 96 37 28,mediatheque.ville-pornichet.com,NR,NR,Espace de lecture et d'accès numérique.,LeAc-CuNu,InitiationsAccompagnements individuelsAutonomie,In-AcIn-Au,gratuit,G,NR,NR,NR,43956,,47.24285,-2.3102,Avenue de la Mer 44380 Pornichet
conum_130_,44 390,44,Loire-Atlantique,Bibliothèque de Puceul,1 Route des Gremets 44390 Puceul,02 40 07 59 88,http://www.cc-nozay-bibliotheques.fr/index/index/id_profil/1,NR,NR,Espace de lecture et d'accès numérique.,LeAc-CuNu,InitiationsAccompagnements individuelsAutonomie,In-AcIn-Au,tarif -20ans : gratuit tarif +20ans: 7€ et 10 habitant hors du CCRN,CondP,NR,NR,NR,44170,,47.521916,-1.617678,1 Route des Gremets 44390 Puceul
conum_131_,44 390,44,Loire-Atlantique,Bibliothèque de Saffré,Avenue du Château 44390 Saffré,02 40 96 86 87,http://www.cc-nozay-bibliotheques.fr/index/index/id_profil/1,NR,NR,Espace de lecture et d'accès numérique.,LeAc-CuNu,InitiationsAccompagnements individuelsAutonomie,In-AcIn-Au,Tarif: -20ans gratuit +20ans:7€ +20ans et hors CCRN : 10€,CondP,NR,NR,NR,,,47.501262,-1.578929,Avenue du Château 44390 Saffré
conum_132_,44 390,44,Loire-Atlantique,Maison de l'emploi,2 BIS Place du Champ de Foire 44390 Nort-sur-Erdre,02 40 66 74 64,NR,NR,NR,Démarches administratives en ligneConseils,DeAd-Co,InitiationsAccompagnements individuelsAutonomie,In-AcIn-Au,gratuit,G,NR,NR,NR,,,47.43656,-1.500552,2 bis Place du Champ de Foire 44390 Nort-sur-Erdre
conum_133_,44 390,44,Loire-Atlantique,Médiathèque Nort-sur-Erdre,35 Rue du Général Leclerc 44390 Nort-sur-Erdre,NR,https://www.bibliothèques.cceg.fr,NR,NR,Espace de lecture et d'accès numérique.,LeAc-CuNu,InitiationsAccompagnements individuelsAutonomie,In-AcIn-Au,gratuit,G,NR,NR,NR,16/10/2020,,47.43837,-1.499583,35 Rue du Général Leclerc 44390 Nort-sur-Erdre
conum_134_,44 400,44,Loire-Atlantique,Centre Information Jeunesse,19 Avenue de la Vendée 44400 Rezé,NR,https://www.infos-jeunes.fr/carte-du-reseau-information-jeunesse/centre-information-jeunesse-reze,NR,NR,Démarches administratives en ligneConseils,DeAd-Co,InitiationsAccompagnements individuelsAutonomie,In-AcIn-Au,gratuit,G,NR,NR,NR,,,47.185012,-1.559797,Avenue de la Vendée 44400 Rezé
conum_135_,44 400,44,Loire-Atlantique,CSC Ragon,9 rue du vivier 44400 REZE,02 40 17 60 54,www.cscragon.fr,GUILLERM Thierry,thierry.guillerm@mairie-reze.fr,Prise en main du matérielPrise en main des logiciels de basePremiers pas sur internetDémarches administratives en ligneApprofondissement logicielsApprofondissement internetCulture numérique,PrMa-PrLo-PrIn-DeAd-ApLo-ApIn-CuNu,InitiationsAccompagnements collectifsAccompagnements individuelsAutonomie,In-AcIn-AcCo-Au,Gratuit,G,Tous publics,Tp,Non,,https://cscragon.centres-sociaux.fr/,47.165039,-1.541655,9 Rue du Vivier 44400 Rezé
conum_136_,44 400,44,Loire-Atlantique,CSC Ragon,9 rue du vivier44400 REZE,02 40 87 80 06,www.cscragon.fr,GUILLERM Thierry,thierry.guillerm@mairie-reze.fr,Prise en main du matérielPrise en main des logiciels de basePremiers pas sur internetDémarches administratives en ligneApprofondissement logicielsApprofondissement internetCulture numérique,PrMa-PrLo-PrIn-CuNu-DeAd-ApMa-ApLo,InitiationsAccompagnements collectifsAccompagnements individuelsAutonomie,In-AcCo-AcIn-Au,Gratuit,G,Tous publics,Tp,Non,,https://cscragon.centres-sociaux.fr/,47.165039,-1.541655,9 Rue du Vivier 44400 Rezé
conum_137_,44 400,44,Loire-Atlantique,Maison de l'emploi Rezé Pont Rousseau,8 Rue Jean Baptiste Vigier 44400 Rezé,02 40 88 73 23,NR,NR,NR,Démarches administratives en ligneConseils,DeAd-Co,InitiationsAccompagnements individuelsAutonomie,In-AcIn-Au,gratuit,G,NR,NR,NR,,,47.191074,-1.546194,8 Rue Jean Baptiste Vigier 44400 Rezé
conum_138_,44 400,44,Loire-Atlantique,Nâga,17 Chemin Fontaine Launay 44400 Rezé,02 40 01 55 84,https://www.naga44.org/,NR,NR,Collecte et vente d'ordinateurs reconditionnés sous Linux,,NR,NR,NR,NR,NR,NR,NR,,,47.187256,-1.547823,Chemin Fontaine Launay 44400 Rezé
conum_139_,44 400,44,Loire-Atlantique,Centre socio culturel de Ragon,9  rue du vivier 44400,NR,www.cscragon.fr,GUILLERM Thierry,thierry.guillerm@mairie-reze.fr,Prise en main du matérielPrise en main des logiciels de basePremiers pas sur internetDémarches administratives en ligneCulture numériq,PrMa-PrIn-CuNu,InitiationsAccompagnements collectifsAccompagnements individuels,In-AcIn-AcCo,Gratuit,G,Tout public,Tp,Non,,https://cscragon.centres-sociaux.fr/files/2019/08/CSCRagonbando.png,47.165039,-1.541655,9 Rue du Vivier 44400 Rezé
conum_140_,44 410,44,Loire-Atlantique,Bibliothèque Le Pré aux Livres,14 Rue de la Fontaine 44410 Assérac,02 40 97 37 26,www.asserac.fr,NR,NR,Espace de lecture et d'accès numérique.,LeAc-CuNu,InitiationsAccompagnements individuelsAutonomie,In-AcIn-Au,gratuit,G,NR,NR,NR,,,47.430692,-2.392121,14 Rue de la Fontaine 44410 Assérac
conum_141_,44 410,44,Loire-Atlantique,CCAS,16 Rue de la Brière 44410 La Chapelle-des-Marais,02 40 45 45 08,http://www.lachapelledesmarais.fr/action-sociale/le-c-c-a-,Centre Communal d'Action Sociale,NR,Démarches administratives en ligneConseils,DeAd-Co,InitiationsAccompagnements individuelsAutonomie,In-AcIn-Au,gratuit,G,NR,NR,NR,,,47.44668,-2.24293,16 Rue de la Brière 44410 La Chapelle-des-Marais
conum_142_,44 410,44,Loire-Atlantique,CCAS d'Herbignac,1 Avenue de la Monneraye 44410 Herbignac,02 40 91 10 21,http://www.herbignac.com/?-Le-CCAS-,NR,NR,Démarches administratives en lignePremiers pas internetConseils,DeAd-PrIn-Co,InitiationsAccompagnements individuelsAutonomie,In-AcIn-Au,gratuit,G,NR,NR,NR,,,47.449286,-2.315981,1 Avenue de la Monneraye 44410 Herbignac
conum_143_,44 410,44,Loire-Atlantique,Mairie Point Emploi,1 Avenue de la Monneraye 44410 Herbignac,02 40 70 11 51,http://www.herbignac.com/?-Orientation-et-Emploi-,NR,NR,Démarches administratives en ligneConseils,DeAd-Co,InitiationsAccompagnements individuelsAutonomie,In-AcIn-Au,gratuit,G,NR,NR,NR,,,47.449286,-2.315981,1 Avenue de la Monneraye 44410 Herbignac
conum_144_,44 410,44,Loire-Atlantique,Maison de services au public,2 Rue de la Brière 44410 Saint-Lyphard,02 40 45 11 92,NR,NR,NR,Démarches administratives en ligneConseils,DeAd-Co,InitiationsAccompagnements individuelsAutonomie,In-AcIn-Au,gratuit,G,NR,NR,NR,,,47.397759,-2.305512,Rue de la Brière 44410 Saint-Lyphard
conum_145_,44 410,44,Loire-Atlantique,Maison de services au public (bureau de poste) Saint-Lyphard,2 Rue de la Brière 44410 Saint-Lyphard,02 40 53 96 12,NR,NR,NR,Démarches administratives en ligneConseils,DeAd-Co,InitiationsAccompagnements individuelsAutonomie,In-AcIn-Au,gratuit,G,NR,NR,NR,,,47.397759,-2.305512,Rue de la Brière 44410 Saint-Lyphard
conum_146_,44 410,44,Loire-Atlantique,Médiathèque Gaston Leroux,Rue de Penlys 44410 La Chapelle-des-Marais,NR,http://mediatheque.gastonleroux.opac3d.fr,NR,NR,Espace de lecture et d'accès numérique.,LeAc-CuNu,InitiationsAccompagnements individuelsAutonomie,In-AcIn-Au,gratuit,G,NR,NR,NR,,,47.44742,-2.24065,Rue de Penlys 44410 La Chapelle-des-Marais
conum_147_,44 410,44,Loire-Atlantique,Relaie CAF,1 Avenue de la Monneraye 44410 Herbignac,O2 40 00 65 28,http://www.herbignac.com/?Point-d-accueil-numerique-CAF-en,NR,NR,Démarches administratives en ligneConseils,DeAd-Co,InitiationsAccompagnements individuelsAutonomie,In-AcIn-Au,gratuit,G,NR,NR,NR,,,47.449286,-2.315981,1 Avenue de la Monneraye 44410 Herbignac
conum_148_,44 410,44,Loire-Atlantique,Relais CAF,2 Rue de la Brière 44410 Saint-Lyphard,NR,https://www.maisondeservicesaupublic.fr/content/saint-lyphard-bureau-de-poste,NR,NR,Démarches administratives en ligneConseils,DeAd-Co,InitiationsAccompagnements individuelsAutonomie,In-AcIn-Au,gratuit,G,NR,NR,NR,,,47.397759,-2.305512,Rue de la Brière 44410 Saint-Lyphard
conum_149_,44 420,44,Loire-Atlantique,Association des Demandeurs d'Emploi du Pays Blanc,Place du Marche 44420 La Turballe,02 40 90 32 66,NR,NR,NR,Démarches administratives en ligneConseils,DeAd-Co,InitiationsAccompagnements individuelsAutonomie,In-AcIn-Au,gratuit,G,NR,NR,NR,,,47.349181,-2.512969,Espace Garlahy - Place Marché 44420 La Turballe
conum_150_,44 420,44,Loire-Atlantique,Bibliotheque Anita Conti,Place du Marche 44420 La Turballe,09 72 72 39 49,www.laturballe.fr/info/bibliotheque_anita_conti,NR,NR,Espace de lecture et d'accès numérique.,LeAc-CuNu,InitiationsAccompagnements individuelsAutonomie,In-AcIn-Au,gratuit,G,NR,NR,NR,,,47.349181,-2.512969,Espace Garlahy - Place Marché 44420 La Turballe
conum_151_,44 420,44,Loire-Atlantique,Office de Tourisme,Place de l'Orée du Bois 44420 Mesquer,NR,http://www.mesquerquimiac.com/office-de-tourisme,NR,NR,Démarches administratives en ligneConseils,DeAd-Co,InitiationsAccompagnements individuelsAutonomie,In-AcIn-Au,gratuit,G,NR,NR,NR,,,47.40621,-2.483343,Place de l'Orée du Bois 44420 Mesquer
conum_152_,44 430,44,Loire-Atlantique,Comme un roman,2 BIS Rue Saint-Vincent 44430 Le Landreau,NR,http://bibliotheque.le-landreau.fr/vufind/,Espace de lecture et de documentation et bénéficiant d'un équipement numérique,NR,Espace de lecture et d'accès numérique.,LeAc-CuNu,InitiationsAccompagnements individuelsAutonomie,In-AcIn-Au,gratuit,G,Jeunes-Adultes-Personnes âgées-Famille/enfant,Tp,NR,,,47.203519,-1.306027,2 bis Rue Saint-vincent 44430 Le Landreau
conum_153_,44 430,44,Loire-Atlantique,Les Quatres Vents,4 Rue du Jeu de Paume 44430 Le Loroux-Bottereau,NR,https://www.mediatheque-loroux-bottereau.net,NR,NR,Espace de lecture et d'accès numérique.,LeAc-CuNu,InitiationsAccompagnements individuelsAutonomie,In-AcIn-Au,gratuit,G,NR,NR,NR,,,47.238526,-1.349373,4 Rue du Jeu de Paume 44430 Le Loroux-Bottereau
conum_154_,44 440,44,Loire-Atlantique,Bibliothèque L'orange bleue,Rue des Chênes 44440 Riaillé,02 40 07 25 81,http://bibliofil.pays-ancenis.fr/,NR,NR,Espace de lecture et d'accès numérique.,LeAc-CuNu,InitiationsAccompagnements individuelsAutonomie,In-AcIn-Au,gratuit,G,NR,NR,NR,,,47.517764,-1.300921,Rue des Chênes 44440 Riaillé
conum_155_,44 440,44,Loire-Atlantique,La Maison de services au public du SIVOM de Riaillé (Joué sur Erdre,182 Rue du Cèdre 44440 Riaillé,NR,https://www.sivom-secteur-riaille.com/espace-france-services/presentation,NR,NR,Démarches administratives en ligneConseils,DeAd-Co,InitiationsAccompagnements individuelsAutonomie,In-AcIn-Au,gratuit,G,NR,NR,NR,,,47.517779,-1.294659,182 Rue du Cèdre 44440 Riaillé
conum_156_,44 440,44,Loire-Atlantique,Maison de Services au Public SIVOM du canton de Riaillé,182 Rue du Cèdre 44440 Riaillé,02 40 81 82 26,NR,NR,NR,Démarches administratives en ligneConseils,DeAd-Co,InitiationsAccompagnements individuelsAutonomie,In-AcIn-Au,gratuit,G,NR,NR,NR,,,47.517779,-1.294659,182 Rue du Cèdre 44440 Riaillé
conum_157_,44 440,44,Loire-Atlantique,Maison des Services au Public du secteur de Riaillé,182 Rue du Cèdre 44440 Riaillé,02 40 28 03 96,https://www.sivom-secteur-riaille.com/,NR,NR,Démarches administratives en ligneConseils,DeAd-Co,InitiationsAccompagnements individuelsAutonomie,In-AcIn-Au,gratuit,G,NR,NR,NR,,,47.517779,-1.294659,182 Rue du Cèdre 44440 Riaillé
conum_158_,44 450,44,Loire-Atlantique,Centre socio-culturel loire divatte,2 Route Félix Praud 44450 Saint-Julien-de-Concelles,NR,http://assoloiredivatte.centres-sociaux.fr/,NR,NR,Démarches administratives en ligneConseils,DeAd-Co,InitiationsAccompagnements individuelsAutonomie,In-AcIn-Au,gratuit,G,NR,NR,NR,,,47.257174,-1.385145,2 Rue Felix Praud 44450 Saint-Julien-de-Concelles
conum_159_,44 450,44,Loire-Atlantique,Le Passe Muraille,5 Rue des Heurthauds 44450 Saint-Julien-de-Concelles,02 40 07 67 34,https://www.mediatheque-le-passe-muraille.fr,NR,NR,Espace de lecture et de documentation ayant un service numérique.,LeAc-CuNu,InitiationsAccompagnements individuelsAutonomie,In-AcIn-Au,gratuit,G,NR,NR,NR,,,47.252977,-1.386508,5 Rue des Heurthauds 44450 Saint-Julien-de-Concelles
conum_160_,44 450,44,Loire-Atlantique,Médiathèque Divatte-sur-Loire,LE CALVAIRE (Barbechat) 44450 Divatte-sur-Loire,NR,http://www.mediatheque-divatte-sur-loire.fr/,NR,NR,NR,NR,NR,NR,gratuit,G,NR,NR,NR,,,47.275057,-1.281659,Le Calvaire 44450 Divatte-sur-Loire
conum_161_,44 460,44,Loire-Atlantique,Médiathèque d'Avessac,Rue de Plessé 44460 Avessac,02 40 17 19 99,NR,NR,NR,Espace de lecture et d'animation ponctuelle possédant un espace d'accès numérique.,LeAc-CuNu,InitiationsAccompagnements individuelsAutonomie,In-AcIn-Au,14€ annuel / gratuit : -18 ans,CondP,bénéficiaires minima sociaux et demandeurs d'emploi,De,NR,,,47.65382,-1.988367,Rue de Plessé 44460 Avessac
conum_162_,44 460,44,Loire-Atlantique,Médiathèque Saint Nicolas de Redon,2 Rue de Tabago 44460 Saint-Nicolas-de-Redon,NR,bénéficiaires minima sociaux et demandeurs d'emploi,NR,NR,Espace de lecture et d'animation comprenant un point d'accès numérique.,LeAc-CuNu,InitiationsAccompagnements individuelsAutonomie,In-AcIn-Au,14€ annuel / gratuit : -18 ans,CondP,NR,NR,NR,,,47.644166,-2.07093,2 Rue de Tabago 44460 Saint-Nicolas-de-Redon
conum_163_,44 480,44,Loire-Atlantique,Médiathèque Jules Verne,13 Rue René Laennec 44480 Donges,02 47 27 24 08,http://mediatheque.ville-donges.fr,NR,NR,Espace de lecture et d'accès numérique.,LeAc-CuNu,InitiationsAccompagnements individuelsAutonomie,In-AcIn-Au,gratuit,G,NR,NR,NR,,,47.31913,-2.07477,13 Rue René Laënnec 44480 Donges
conum_164_,44 490,44,Loire-Atlantique,CCAS Le Croisic,3 Rue de la Duchesse Anne 44490 Le Croisic,02 28 55 99 73,https://www.loire-atlantique.fr/jcms/classement-des-contenus/lieux/par-types-de-lieu/service/centres-communaux-d-action-sociale-ccas/centre-communal-d-action-sociale-ccas-du-croisic-fr-t1_36195,NR,NR,Démarches administratives en ligneConseils,DeAd-Co,InitiationsAccompagnements individuelsAutonomie,In-AcIn-Au,gratuit,G,NR,NR,NR,,,47.294262,-2.513663,3 Rue de la Duchesse Anne 44490 Le Croisic
conum_165_,44 490,44,Loire-Atlantique,Office de Tourisme,6 Rue du Pilori 44490 Le Croisic,NR,http:/www.tourisme-lecroisic.fr/fr,NR,NR,Espace de lecture et d'accès numérique.,LeAc-CuNu,InitiationsAccompagnements individuelsAutonomie,In-AcIn-Au,gratuit,G,NR,NR,NR,,,47.2938,-2.510971,6 Rue du Pilori 44490 Le Croisic
conum_166_,44 500,44,Loire-Atlantique,Médiathèque Henri Queffelec,181 Avenue du Maréchal de Lattre de Tassigny 44500 La Baule-Escoublac,NR,http://www.labaule.fr/bibliotheque-henri-queffelec,NR,NR,Espace de lecture et d'accès numérique.,LeAc-CuNu,InitiationsAccompagnements individuelsAutonomie,In-AcIn-Au,gratuit,G,NR,NR,NR,,,47.284344,-2.402612,181 Avenue du Maréchal de Lattre de Tassigny 44500 La Baule-Escoublac
conum_167_,44 500,44,Loire-Atlantique,Office de Tourisme,8 Place de la Victoire 44500 La Baule-Escoublac,NR,http://www.labaule-guerande.com,NR,NR,Démarches administratives en ligneConseils,DeAd-Co,InitiationsAccompagnements individuelsAutonomie,In-AcIn-Au,gratuit,G,NR,NR,NR,,,47.287084,-2.391093,Place de la Victoire 44500 La Baule-Escoublac
conum_168_,44 500,44,Loire-Atlantique,Pôle emploi,3 BIS Avenue des Noelles 44500 La Baule-Escoublac,02 40 66 04 50,https://www.pole-emploi.fr/annuaire/la-baule-guerande-44016,NR,NR,Démarches administratives en ligneConseils,DeAd-Co,InitiationsAccompagnements individuelsAutonomie,In-AcIn-Au,gratuit,G,NR,NR,NR,,,47.291456,-2.394937,3 bis Avenue des Noëlles 44500 La Baule-Escoublac
conum_169_,44 510,44,Loire-Atlantique,Espace jeunes du Pouliguen,4 Rue Paul Lesage 44510 Le Pouliguen,02 40 53 50 00,https://www.annuaire-administration.com/cij/point-information-jeunesse-du-pouliguen-cij-44135-01.html,NR,NR,Démarches administratives en ligneConseils,DeAd-Co,InitiationsAccompagnements individuelsAutonomie,In-AcIn-Au,cotisation annuelle : 15€ pour les habitants / 20€ hors-commune,CondP,Espace jeunes à destination des 16-25 ans. Accès libre.,J,NR,,,47.275755,-2.431108,4 Rue Paul Lesage 44510 Le Pouliguen
conum_170_,44 520,44,Loire-Atlantique,Bibliothèque La Meilleraye-de-Bretagne,72 Rue des Frères Temple 44520 La Meilleraye-de-Bretagne,02 40 70 35 22,http://www.cc-castelbriantais.fr/reseau-des-bibliotheques,Lieu de lecture et d'activités.,NR,Espace de lecture et d'accès numérique.,LeAc-CuNu,InitiationsAccompagnements individuelsAutonomie,In-AcIn-Au,gratuit,G,NR,NR,NR,,,47.559804,-1.401778,72 Rue des Fréres Templé 44520 La Meilleraye-de-Bretagne
conum_171_,44 520,44,Loire-Atlantique,Blibliothèque Issé,2 Rue du Chêne Piraud 44520 Issé,02 28 55 99 90,http://www.cc-castelbriantais.fr/reseau-des-bibliotheques,NR,NR,Espace de lecture et d'accès numérique.,LeAc-CuNu,InitiationsAccompagnements individuelsAutonomie,In-AcIn-Au,gratuit,G,NR,NR,NR,,,47.622337,-1.452621,2 Rue du Chêne Piraud 44520 Issé
conum_172_,44 521,44,Loire-Atlantique,Bibliothèque La Forge aux livres,Rue Saint-Jéréme 44521 Couffé,NR,http://bibliofil.pays-ancenis.fr/,NR,NR,Espace de lecture et d'accès numérique.,LeAc-CuNu,InitiationsAccompagnements individuelsAutonomie,In-AcIn-Au,gratuit,G,NR,NR,NR,,,47.391734,-1.291258,Rue Saint Jérôme 44521 Couffé
conum_173_,44 521,44,Loire-Atlantique,Bibliothèque Moisdon-la-rivière,Place de l'église 44520 Moisdon-la-Rivière,NR,http://www.cc-castelbriantais.fr/reseau-des-bibliotheques,NR,NR,Espace de lecture et d'accès numérique.,LeAc-CuNu,InitiationsAccompagnements individuelsAutonomie,In-AcIn-Au,gratuit,G,NR,NR,NR,,,47.621826,-1.372513,Place de l'Eglise 44520 Moisdon-la-Rivière
conum_174_,44 522,44,Loire-Atlantique,Bibliothèque Les Milles et Une Pages,Boulevard des Arts/Rue des Arts 44522 Mésanger,02 40 22 50 30,http://bibliofil.pays-ancenis.fr/,NR,NR,Espace de lecture et d'accès numérique.,LeAc-CuNu,InitiationsAccompagnements individuelsAutonomie,In-AcIn-Au,gratuit,G,NR,NR,NR,,,47.433596,-1.232391,Boulevard des Arts 44522 Mésanger
conum_175_,44 530,44,Loire-Atlantique,Bibliothèque de Saint Gildas des Bois,17 Rue des Forges 44530 Saint-Gildas-des-Bois,09 72 72 39 49,paysdepontchateau.fr/contacts/bibliotheque-de-st-gildas-des-bois,NR,NR,Espace de lecture et d'accès numérique.,LeAc-CuNu,InitiationsAccompagnements individuelsAutonomie,In-AcIn-Au,gratuit,G,NR,NR,NR,,,47.512452,-2.039028,17 Rue des Forges 44530 Saint-Gildas-des-Bois
conum_176_,44 530,44,Loire-Atlantique,Maison de service au public,Rue de la Roche Buttée 44530 Guenrouet,0 810 25 44 10,NR,NR,NR,Démarches administratives en ligneConseils,DeAd-Co,InitiationsAccompagnements individuelsAutonomie,In-AcIn-Au,gratuit,G,NR,NR,NR,,,47.519588,-1.954758,Rue de la Roche Buttée 44530 Guenrouet
conum_177_,44 530,44,Loire-Atlantique,Maison de services au public,4 Rue de la Roche Buttée 44530 Guenrouet,02 40 85 46 15,NR,NR,NR,Démarches administratives en ligneConseils,DeAd-Co,InitiationsAccompagnements individuelsAutonomie,In-AcIn-Au,NR,NR,NR,NR,NR,,,47.519266,-1.954992,4 Rue de la Roche Buttée 44530 Guenrouet
conum_178_,44 530,44,Loire-Atlantique,Médiathèque de Drefféac,1 Rue des Saules 44530 Drefféac,02 40 85 46 15,www.cc-paysdepontchateau.fr/contacts/bibliotheque-de-dreffeac-2,NR,NR,Espace de lecture et d'accès numérique.,LeAc-CuNu,InitiationsAccompagnements individuelsAutonomie,In-AcIn-Au,gratuit,G,NR,NR,NR,,,47.474681,-2.061063,1 Rue des Saules 44530 Drefféac
conum_179_,44 530,44,Loire-Atlantique,Médiathèque de Guenrouèt,12 Rue André Caux 44530 Guenrouet,NR,http://www.guenrouet.fr/la-bibliotheque-intercommunale,NR,NR,NR,NR,NR,NR,gratuit,G,NR,NR,NR,,,47.51975,-1.955245,12 Rue André Caux 44530 Guenrouet
conum_180_,44 530,44,Loire-Atlantique,Médiathèque de Sévérac,2 Rue de la Gagnerie 44530 Sévérac,02 40 85 45 88,http://www.cc-paysdepontchateau.fr/contacts/bibliotheque-de-severac-2/,NR,NR,Espace de lecture et d'accès numérique.,LeAc-CuNu,InitiationsAccompagnements individuelsAutonomie,In-AcIn-Au,Abonnement 11€ par an,CondP,NR,NR,NR,,,47.54841,-2.077494,2 Rue de la Gagnerie 44530 Sévérac
conum_181_,44 530,44,Loire-Atlantique,Mission locale Saint-Gildas-des-bois,17 Rue des Forges 44530 Saint-Gildas-des-Bois,NR,http://www.cc-paysdepontchateau.fr/contacts/mission-locale-rurale-du-sillon,NR,NR,Démarches administratives en ligneConseils,DeAd-Co,InitiationsAccompagnements individuelsAutonomie,In-AcIn-Au,gratuit,G,NR,NR,NR,,,47.512452,-2.039028,17 Rue des Forges 44530 Saint-Gildas-des-Bois
conum_182_,44 530,44,Loire-Atlantique,Relais CAF,4 Rue de la Roche Buttée 44530 Guenrouet,02 40 05 87 28,https://www.maisondeservicesaupublic.fr/content/guenrouet-bureau-de-poste,NR,NR,Démarches administratives en ligneConseils,DeAd-Co,InitiationsAccompagnements individuelsAutonomie,In-AcIn-Au,gratuit,G,NR,NR,NR,,,47.519266,-1.954992,4 Rue de la Roche Buttée 44530 Guenrouet
conum_183_,44 540,44,Loire-Atlantique,Bibliothèque Les mots passants,18 Avenue Charles Henri de Cosse Brissac (Saint-Mars-la-Jaille) 44540 Vallons-de-l'Erdre,02 28 21 62 20,http://bibliofil.pays-ancenis.fr/,NR,NR,Espace de lecture et d'accès numérique.,LeAc-CuNu,InitiationsAccompagnements individuelsAutonomie,In-AcIn-Au,gratuit,G,NR,NR,NR,,,47.524988,-1.184543,18 Av C Henri de Cosse Brissac 44540 Vallons-de-l'Erdre
conum_184_,44 550,44,Loire-Atlantique,CCAS Montoir-de Bretagne,65 Rue Jean Jaurès 44550 Montoir-de-Bretagne,02 40 28 75 53,http://www.montoirdebretagne.fr/Vivre-ensemble/L-action-sociale,Centre Communale d'Action Sociale,NR,Démarches administratives en ligneConseils,DeAd-Co,InitiationsAccompagnements individuelsAutonomie,In-AcIn-Au,gratuit,G,NR,NR,NR,,,47.32703,-2.15035,65 Rue Jean Jaurès 44550 Montoir-de-Bretagne
conum_185_,44 550,44,Loire-Atlantique,Médiathèque Colette,Rue Jean Macé 44550 Saint-Malo-de-Guersac,NR,http://mediatheque-colette.opac3d.fr/search.php?action=Accueil,NR,NR,Espace de lecture et d'accès numérique.,LeAc-CuNu,InitiationsAccompagnements individuelsAutonomie,In-AcIn-Au,gratuit,G,NR,NR,NR,,,47.35234,-2.17961,Rue Jean Macé 44550 Saint-Malo-de-Guersac
conum_186_,44 550,44,Loire-Atlantique,Médiathèque municipale Barbara,7 Rue de Berry 44550 Montoir-de-Bretagne,02 28 04 02 71,http://www.mediatheque-montoir.fr,NR,NR,Espace de lecture et d'accès numérique.,LeAc-CuNu,InitiationsAccompagnements individuelsAutonomie,In-AcIn-Au,gratuit,G,NR,NR,NR,,,47.32948,-2.15029,7 Rue du Berry 44550 Montoir-de-Bretagne
conum_187_,44 550,44,Loire-Atlantique,START'AIR Jeunes,3 Rue Pablo Neruda 44550 Montoir-de-Bretagne,02 40 07 76 15,http://www.startair.fr/montoir-de-bretagne,NR,NR,Démarches administratives en ligneConseils,DeAd-Co,InitiationsAccompagnements individuelsAutonomie,In-AcIn-Au,gratuit,G,NR,NR,NR,,,47.33089,-2.15318,3 Rue Pablo Néruda 44550 Montoir-de-Bretagne
conum_188_,44 550,44,Loire-Atlantique,Start'Air Jeunes Saint-Malo-de-Guersac,52 Rue Aristide Briand 44550 Saint-Malo-de-Guersac,02 28 04 09 34,http://www.startair.fr/saint-malo-de-guersac,NR,NR,Démarches administratives en ligneConseils,DeAd-Co,InitiationsAccompagnements individuelsAutonomie,In-AcIn-Au,Habitant de Saint-Malo-de-Guersac : 7€ par an,CondP,NR,NR,NR,,,47.35308,-2.1751,52 Rue Aristide Briand 44550 Saint-Malo-de-Guersac
conum_189_,44 560,44,Loire-Atlantique,Centre socioculturel intercommunal Espace multimédia ACCES CYB,33 Boulevard Dumesnildot 44560 Paimboeuf,02 40 81 03 33,https://www.csc-mireillemoyon.fr/ateliers-de-loisirs/ateliers-tout-public.html,NR,NR,Démarches administratives en ligneConseils,DeAd-Co,InitiationsAccompagnements individuelsAutonomie,In-AcIn-Au,NR,NR,NR,NR,NR,,,47.286904,-2.031379,33 Boulevard Dumesnildot 44560 Paimbœuf
conum_190_,44 570,44,Loire-Atlantique,cybercentre reseau cyber-base-trignac,9 Rue Jean Jaurès 44570 Trignac,02 40 07 79 76,http://cybercentre-trignac/,NR,NR,Prise en main du matérielPrise en main des logiciels de basePremiers pas sur internetDémarches administratives en ligneApprofondissement logicielsApprofondissement internetCulture numériqueConseils,PrMa-PrLo-PrIn-DeAd-ApLo-ApIn-CuNu-Co,InitiationsFormation individuellesFormations collectivesAccompagnements collectifsAccompagnements individuelsAutonomie,FoCo-FoIn-In-AcCo-AcIn-Au,NR,NR,NR,NR,NR,,,47.32049,-2.18734,9 Rue Jean Jaurès 44570 Trignac
conum_191_,44 570,44,Loire-Atlantique,Cybercentre Trignac,9 Rue Jean Jaurès 44570 Trignac,02 40 07 24 76,http://atlc-cybercentre-trignac.e-monsite.com/,NR,NR,Prise en main du matérielPrise en main des logiciels de basePremiers pas sur internetDémarches administratives en ligneApprofondissement logicielsApprofondissement internetCulture numériqueConseils,PrMa-PrLo-PrIn-DeAd-ApLo-ApIn-CuNu-Co,InitiationsFormation individuellesFormations collectivesAccompagnements collectifsAccompagnements individuelsAutonomie,FoCo-FoIn-In-AcCo-AcIn-Au,12€ l'atelier + 8 € cotisation ATLC,CondP,NR,NR,NR,,,47.32049,-2.18734,9 Rue Jean Jaurès 44570 Trignac
conum_192_,44 570,44,Loire-Atlantique,Médiathèque Municipale de Trignac,Rue Émile Combes 44570 Trignac,02 40 55 59 32,http://www.mairie-trignac.fr/contacts/mediatheque-municipale,NR,NR,Espace de lecture et d'accès numérique.,LeAc-CuNu,InitiationsAccompagnements individuelsAutonomie,In-AcIn-Au,gratuit,G,NR,NR,NR,,,47.32066,-2.18878,Rue Emile Combes 44570 Trignac
conum_193_,44 570,44,Loire-Atlantique,Pôle emploi Trignac,7 Avenue Barbara 44570 Trignac,02 40 02 69 13,https://www.pole-emploi.fr/annuaire/trignac-44194,NR,NR,Démarches administratives en ligneConseils,DeAd-Co,InitiationsAccompagnements individuelsAutonomie,In-AcIn-Au,gratuit,G,NR,NR,NR,,,47.29428,-2.20627,Avenue Barbara 44570 Trignac
conum_194_,44 570,44,Loire-Atlantique,Start'Air Jeunes,Allée des Prunus 44570 Trignac,02 40 31 73 30,NR,NR,NR,Démarches administratives en ligneConseils,DeAd-Co,InitiationsAccompagnements individuelsAutonomie,In-AcIn-Au,gratuit,G,NR,NR,NR,,,47.30144,-2.20107,Allée des Prunus 44570 Trignac
conum_195_,44 580,44,Loire-Atlantique,Maison de services au public,15 Rue de la Taillée (Bourgneuf-en-Retz) 44580 Villeneuve-en-Retz,02 28 25 09 80,NR,NR,NR,Démarches administratives en ligneConseils,DeAd-Co,InitiationsAccompagnements individuelsAutonomie,In-AcIn-Au,gratuit,G,NR,NR,NR,,,47.042363,-1.954248,15 Rue de la Taillée 44580 Villeneuve-en-Retz
conum_196_,44 590,44,Loire-Atlantique,Axetic,45 Rue de Châteaubriant 44590 Sion-les-Mines,NR,https://sites.google.com/site/axetic44,NR,NR,création de site web,NR,NR,NR,NR,NR,NR,NR,NR,,,47.734198,-1.588314,45 Rue de Châteaubriant 44590 Sion-les-Mines
conum_197_,44 590,44,Loire-Atlantique,Cyber-base emploi,14 Rue de la Garlais 44590 Derval,02 40 02 43 74,http://derval.cyber-base.org/,Communauté de communes du secteur de Derval,cybercentre@cc-derval.fr,Prise en main du matérielPrise en main des logiciels de basePremiers pas sur internetDémarches administratives en ligneApprofondissement logicielsApprofondissement internetCulture numériqueConseils,PrMa-PrLo-PrIn-DeAd-ApLo-ApIn-CuNu-Co,InitiationsFormation individuellesFormations collectivesAccompagnements collectifsAccompagnements individuelsAutonomie,FoCo-FoIn-In-AcCo-AcIn-Au,Profil(s): Enfants Jeunes Etudiants Adultes Parents Seniors Demandeurs d’emploi Tarifs: Un abonnement annuel est nécessaire pour profiter des activités de l’espace avec une distinction géographique selon la résidence sur le territoire de la Communauté de,CondP,Jeunes-Adultes-Personnes âgées-Famille/enfant,Tp,NR,,,47.668489,-1.670259,14 Rue de la Garlais 44590 Derval
conum_198_,44 590,44,Loire-Atlantique,Mairie Saint Vincent des Landes,17 Rue de la Mairie 44590 Saint-Vincent-des-Landes,02 40 02 68 63,http://www.mairie-stvincentdeslandes.fr/,NR,NR,Démarches administratives en ligneConseils,DeAd-Co,InitiationsAccompagnements individuelsAutonomie,In-AcIn-Au,gratuit,G,NR,NR,NR,,,47.655409,-1.497669,17 Rue de la Mairie 44590 Saint-Vincent-des-Landes
conum_199_,44 590,44,Loire-Atlantique,Maison de l'emploi Derval,14 Rue de la Garlais 44590 Derval,02 51 78 98 60,http://www.mde-chateaubriant-derval.fr/site-de-derval/,NR,NR,Démarches administratives en ligneConseils,DeAd-Co,InitiationsAccompagnements individuelsAutonomie,In-AcIn-Au,gratuit,G,NR,NR,NR,,,47.668489,-1.670259,14 Rue de la Garlais 44590 Derval
conum_200_,44 590,44,Loire-Atlantique,Médiathèque de Derval,15 Rue de la Tour Saint-Clair 44590 Derval,02 40 31 53 18,http://www.biblios-ccsd.net,NR,NR,Espace de lecture et d'accès numérique.,LeAc-CuNu,InitiationsAccompagnements individuelsAutonomie,In-AcIn-Au,gratuit,G,NR,NR,NR,,,47.667697,-1.6699,15 Rue de la Tour Saint - Clair 44590 Derval
conum_201_,44 590,44,Loire-Atlantique,Médiathèque de Lusanger,1 Rue de la Gare 44590 Lusanger,02 40 21 78 27,http://www.biblios-ccsd.net/,NR,NR,Espace de lecture et d'accès numérique.,LeAc-CuNu,InitiationsAccompagnements individuelsAutonomie,In-AcIn-Au,gratuit,G,NR,NR,NR,,,47.679817,-1.587616,1 Rue de la Gare 44590 Lusanger
conum_202_,44 590,44,Loire-Atlantique,Médiathèque de Mouais,3 Place de l'église 44590 Mouais,02 40 61 69 22,http://www.biblios-ccsd.net/,NR,NR,Espace de lecture et d'accès numérique.,LeAc-CuNu,InitiationsAccompagnements individuelsAutonomie,In-AcIn-Au,gratuit,G,NR,NR,NR,,,47.696335,-1.644657,3 Place de l'Eglise 44590 Mouais
conum_203_,44 590,44,Loire-Atlantique,Médiathèque de Sion-les-Mines,1 Place du Breil 44590 Sion-les-Mines,NR,https://mediatheques.cc-chateaubriant-derval.fr/accueil/sion_les_mines,NR,NR,Espace de lecture et d'accès numérique.,LeAc-CuNu,InitiationsAccompagnements individuelsAutonomie,In-AcIn-Au,gratuit,G,NR,NR,NR,,,47.736718,-1.590792,1 Place du Breil 44590 Sion-les-Mines
conum_204_,44 600,44,Loire-Atlantique,C.C.A.S Centre Communal Action Sociale,37 Rue Pierre Mendès France 44600 Saint-Nazaire,02 40 27 86 30,https://www.loire-atlantique.fr/jcms/classement-des-contenus/par-territoire/communaute-d-agglomeration-de-la-region-nazairienne-et-de-l-estuaire/centre-communal-d-action-sociale-ccas-de-saint-nazaire-fr-t1_35938,NR,NR,Démarches administratives en ligneConseils,DeAd-Co,InitiationsAccompagnements individuelsAutonomie,In-AcIn-Au,gratuit,G,NR,NR,NR,,,47.27252,-2.21776,37 Rue Pierre Mendès France 44600 Saint-Nazaire
conum_205_,44 600,44,Loire-Atlantique,"Centre Information Jeunesse ""La Source""",46 rue d'Anjou44606 Saint-Nazaire,02 40 23 89 51,https://lasource.saintnazaire.fr/accueil,NR,NR,Démarches administratives en ligneConseils,DeAd-Co,InitiationsAccompagnements individuelsAutonomie,In-AcIn-Au,CondP,CondP,NR,NR,NR,,,47.2764,-2.21016,46 Rue d'Anjou 44600 Saint-Nazaire
conum_206_,44 600,44,Loire-Atlantique,Ecole d'Arts - Ateliers numériques,24 Avenue Léon Blum 44600 Saint-Nazaire,02 28 01 83 10,https://beauxartsnantes.fr/biblioth%C3%A8que-beaux-arts-nantes,NR,NR,Création numérique Utilisation de logiciel payant (photoshop),PrMa-PrLo-CuNu-CuFa,InitiationsAccompagnements individuelsAutonomie,In-AcIn-Au,Ateliers: 30€ pour les habitants20€ pour les -25ans 60€ hors-commune 40€ pour -25ans hors-communeaccès à l'ordinateur et libre et gratuit,CondP,NR,NR,NR,,,47.27263,-2.21199,24 Avenue Léon Blum 44600 Saint-Nazaire
conum_207_,44 600,44,Loire-Atlantique,Espace Multimédia Léo Lagrange,1 BIS Rue des Ajoncs 44600 Saint-Nazaire,0970 210 889,http://espacemultimedia.over-blog.org/,NR,NR,Démarches administratives en ligneConseils,DeAd-Co,InitiationsAccompagnements individuelsAutonomie,In-AcIn-Au,gratuit,G,NR,NR,NR,,,47.26763,-2.24982,1 bis Rue des Ajoncs 44600 Saint-Nazaire
conum_208_,44 600,44,Loire-Atlantique,La source,46 Rue d'Anjou 44600 Saint-Nazaire,02 40 82 75 77,https://lasource.saintnazaire.fr/la-prog/tes-plein-de-ressources-atelier-programmation-la-source-12416,NR,NR,Démarches administratives en ligneConseils,DeAd-Co,InitiationsAccompagnements individuelsAutonomie,In-AcIn-Au,Abonnement 2€ par an,CondP,NR,NR,NR,,,47.2764,-2.21016,46 Rue d'Anjou 44600 Saint-Nazaire
conum_209_,44 600,44,Loire-Atlantique,Maison de quartier d'Avalix,3 Rue du Docteur Albert Calmette 44600 Saint-Nazaire,02 40 19 32 31,NR,NR,NR,Démarches administratives en ligneConseils,DeAd-Co,InitiationsAccompagnements individuelsAutonomie,In-AcIn-Au,adultes : 7€ enfants et jeunes jusqu'à 25 ans : 4€ familles : 11€ associations : 30€,CondP,NR,NR,NR,,,47.27342,-2.23981,3 Rue du Docteur Albert Calmette 44600 Saint-Nazaire
conum_210_,44 600,44,Loire-Atlantique,Maison de quartier de l'Immaculée- Beauregard,Route du Point du Jour 44600 Saint-Nazaire,NR,http:// www.fmq-saintnazaire.fr/bienvenue/index.php/les-maisons-de-quartier/immaculee-beauregardr,NR,NR,Démarches administratives en ligneConseils,DeAd-Co,InitiationsAccompagnements individuelsAutonomie,In-AcIn-Au,sur Rendez-vous.,CondP,NR,NR,NR,,,47.29066,-2.26002,Route du Point du Jour 44600 Saint-Nazaire
conum_211_,44 600,44,Loire-Atlantique,Maison de quartier de Méan- Penhoë,1 Rue Émile Combes 44600 Saint-Nazaire,02 28 25 22 90,http:// www.fmq-saintnazaire.fr/bienvenue/index.php/les-maisons-de-quartier/mean-penhoet,NR,NR,Démarches administratives en ligneConseils,DeAd-Co,InitiationsAccompagnements individuelsAutonomie,In-AcIn-Au,gratuit,G,NR,NR,NR,,,47.29629,-2.18911,1 Rue Emile Combes 44600 Saint-Nazaire
conum_212_,44 600,44,Loire-Atlantique,Maison de quartier Kerlédé,70 Rue Ferdinand Buisson 44600 Saint-Nazaire,02 51 12 26 11,http:// www.fmq-saintnazaire.fr/bienvenue/index.php/les-maisons-de-quartier/kerlede,NR,NR,Démarches administratives en ligneConseils,DeAd-Co,InitiationsAccompagnements individuelsAutonomie,In-AcIn-Au,gratuit,G,NR,NR,NR,,,47.25714,-2.23458,70 Rue Ferdinand Buisson 44600 Saint-Nazaire
conum_213_,44 600,44,Loire-Atlantique,Maison de quartier La Bouletterie,29 Rue des Frènes 44600 Saint-Nazaire,02 40 25 44 82,http://www.fmq-saintnazaire.fr/bienvenue/index.php/les-maisons-de-quartier/la-bouletterie,NR,NR,Démarches administratives en ligneConseils,DeAd-Co,InitiationsAccompagnements individuelsAutonomie,In-AcIn-Au,gratuit,G,NR,NR,NR,,,47.2606,-2.26051,29 Rue des Frênes 44600 Saint-Nazaire
conum_214_,44 600,44,Loire-Atlantique,Maison de quartier La Chesnaie,1 BIS Rue des Ajoncs 44600 Saint-Nazaire,06 26 86 88 62,http://www.fmq-saintnazaire.fr/bienvenue/index.php/les-maisons-de-quartier/la-chesnaie,NR,NR,Démarches administratives en ligneConseils,DeAd-Co,InitiationsAccompagnements individuelsAutonomie,In-AcIn-Au,gratuit,G,NR,NR,NR,43957,,47.26763,-2.24982,1 bis Rue des Ajoncs 44600 Saint-Nazaire
conum_215_,44 600,44,Loire-Atlantique,Médiathèque Anne-Frank,51 Boulevard émile Broodcoorens 44600 Saint-Nazaire,02 41 41 10 00,NR,NR,NR,Ateliers numériques Jeux-vidéos,PrMa-PrLo-CuNu-CuFa,InitiationsAccompagnements individuelsAutonomie,In-AcIn-Au,gratuit,G,NR,NR,NR,17/06/2020,,47.26095,-2.2568,51 Boulevard Emile Broodcoorens 44600 Saint-Nazaire
conum_216_,44 600,44,Loire-Atlantique,Médiathèque Etienne Caux,6 Rue Auguste Baptiste Léchöet 44600 Saint-Nazaire,NR,http://www.mediatheque.mairie-saintnazaire.fr,NR,NR,Espace de lecture et d'accès numérique.,LeAc-CuNu,InitiationsAccompagnements individuelsAutonomie,In-AcIn-Au,CondP,CondP,NR,NR,NR,,,47.27946,-2.21755,6 Rue Auguste Baptiste Lechat 44600 Saint-Nazaire
conum_217_,44 600,44,Loire-Atlantique,Mission Locale de l'Agglomération Nazairienne,215 Boulevard du Docteur René Laennec 44600 Saint-Nazaire,06 09 50 58 13,https://www.facebook.com/missionlocaleagglomerationnazairienne,NR,NR,Démarches administratives en ligneConseils,DeAd-Co,InitiationsAccompagnements individuelsAutonomie,In-AcIn-Au,gratuit,G,NR,NR,NR,,,47.27277,-2.2373,215 Boulevard du Docteur René Laënnec 44600 Saint-Nazaire
conum_218_,44 600,44,Loire-Atlantique,Pôle emploi,10 Boulevard de l'Université 44600 Saint-Nazaire,02 41 77 56 19,https://www.pole-emploi.fr/annuaire/st-nazaire-44021,NR,NR,Démarches administratives en ligneConseils,DeAd-Co,InitiationsAccompagnements individuelsAutonomie,In-AcIn-Au,gratuit,G,NR,NR,NR,,,47.25313,-2.26196,10 Boulevard de l'Université 44600 Saint-Nazaire
conum_219_,44 600,44,Loire-Atlantique,Relais CAF,2 Place Pierre Semard 44600 Saint-Nazaire,02 41 77 55 06,https://www.loire-atlantique.fr/jcms/classement-des-contenus/par-territoire/communaute-d-agglomeration-de-la-region-nazairienne-et-de-l-estuaire/caf-antenne-de-saint-nazaire-fr-p1_638486,NR,NR,Démarches administratives en ligneConseils,DeAd-Co,InitiationsAccompagnements individuelsAutonomie,In-AcIn-Au,gratuit,G,NR,NR,NR,,,47.28502,-2.21107,Place Pierre Sémard 44600 Saint-Nazaire
conum_220_,44 610,44,Loire Atlantique,Le Tiers Lieu,Maison des associations 2 rue du stade 44610 INDRE,02 41 77 76 72,www.acleea.fr,Girard David,,Prise en main du matérielPrise en main des logiciels de basePremiers pas sur internetDémarches administratives en ligneApprofondissement logicielsApprofondissement internetCulture numérique,PrMa-PrLo-PrIn-CuNu-DeAd-ApMa-ApLo,InitiationsAccompagnements collectifsAccompagnements individuelsAutonomie,In-AcCo-AcIn-Au,Gratuit,G,Tous publics,Tp,Non,,https://acleea.pagesperso-orange.fr/images/tierslieu_full.png,47.200686,-1.672493,2 Rue du Stade 44610 Indre
conum_221_,44 610,44,LOIRE-ATLANTIQUE,Le Tiers Lieu,Maison des associations 2 rue du stade 44610 INDRE,02 41 48 05 35,www.acleea.fr,Girard David,NR,Prise en main du matérielPrise en main des logiciels de basePrise en main des logiciels de basePremiers pas sur internetDémarches administratives en ligneApprofondissement logicielsApprofondissement internetCulture numérique,PrMa-PrLo-PrIn-DeAd-ApLo-ApIn-CuNu,Formations collectivesFormations individuellesInitiationsAccompagnements collectifsAccompagnements individuelsAutonomie,FoCo-FoIn-In-AcCo-AcIn-Au,Conditions particulières,CondP,Tous publics,Tp,Non,,https://acleea.pagesperso-orange.fr/images/tierslieu_full.png,47.200686,-1.672493,2 Rue du Stade 44610 Indre
conum_222_,44 610,44,Loire-Atlantique,Le Tiers Lieu - ERN,2 Rue du Stade 44610 Indre,02 41 72 81 89,NR,NR,NR,Prise en main du matérielPrise en main des logiciels de basePremiers pas sur internetDémarches administratives en ligneApprofondissement logicielsApprofondissement internetCulture numériqueConseils,PrMa-PrLo-PrIn-DeAd-ApLo-ApIn-CuNu-Co,InitiationsFormation individuellesFormations collectivesAccompagnements collectifsAccompagnements individuelsAutonomie,FoCo-FoIn-In-AcCo-AcIn-Au,NR,NR,NR,NR,NR,,,47.200686,-1.672493,2 Rue du Stade 44610 Indre
conum_223_,44 610,44,Loire-Atlantique,MAIRIE D'INDRE,Avenue de la Loire 44610 Indre,NC,http://www.indre44.fr/,NR,NR,Démarches administratives en ligneConseils,DeAd-Co,InitiationsAccompagnements individuelsAutonomie,In-AcIn-Au,NR,NR,NR,NR,NR,,,47.197975,-1.663759,Avenue de la Loire 44610 Indre
conum_224_,44 630,44,Loire-Atlantique,Médiathèque du Plessé,3 Espace des 3 Lieux 44630 Plessé,06 71 01 66 54,NR,NR,NR,Espace de lecture et d'accès numérique.,LeAc-CuNu,InitiationsAccompagnements individuelsAutonomie,In-AcIn-Au,14€ annuel / gratuit : -18 ans,CondP,bénéficiaires minima sociaux et demandeurs d'emploi,De,NR,,,47.542642,-1.885773,3 Espace des 3 Lieux 44630 Plessé
conum_225_,44 650,44,Loire-Atlantique,Bibliothèque de Corcoué-sur-Logne,5 Place du Marche 44650 Corcoué-sur-Logne,02 41 22 20 05,http://laplaceauxlivres.opac3d.fr,NR,NR,Espace de lecture et d'accès numérique.,LeAc-CuNu,InitiationsAccompagnements individuelsAutonomie,In-AcIn-Au,gratuit,G,NR,NR,NR,,,46.963754,-1.582216,5 Place du Marché 44650 Corcoué-sur-Logne
