Code postal,Nom de la structure,Adresse postale,Numéro de téléphone,Site Web,Nom Prénom du référent,Mail contact,Activités proposées,Conditions d'accès,Accompagnement,Public,Équipement,APTIC,Date de mise à jour,latitude,longitude,result_label,result_score,result_type,result_id,result_housenumber,result_name,result_street,result_postcode,result_city,result_context,result_citycode,result_oldcitycode,result_oldcity,result_district
44000,Mediagraph,1 Rue d'Auvours 44000 Nantes,240121912,,,,,,,,,,,47.221374,-1.563522,1 Rue d'Auvours 44000 Nantes,0.96,housenumber,44109_0480_00001,1,Rue d'Auvours,,44000,Nantes,44; Loire-Atlantique; Pays de la Loire,44109,,,
44000,Bureau de la Poste Bourgneuf-en-Retz,16 Rue de la Tailée (Bourgneuf-en-Retz) 44580 Villeneuve-en-Retz,240214485,https://www.maisondeservicesaupublic.fr/,,,,Gratuit,,,,,,47.042412,-1.954083,16 Rue de la Taillée 44580 Villeneuve-en-Retz,0.67,housenumber,44021_0480_00016,16,Rue de la Taillée,,44580,Villeneuve-en-Retz,44; Loire-Atlantique; Pays de la Loire,44021,44021,Bourgneuf-en-Retz,
44000,Espace Multimedia Accoord Malakoff,Rue d'Angleterre 44000 Nantes,,,,,,,,,,,,47.21476,-1.526578,Rue d'Angleterre 44000 Nantes,0.96,street,44109_0294,,Rue d'Angleterre,,44000,Nantes,44; Loire-Atlantique; Pays de la Loire,44109,,,
44000,Mediagraph,1 Rue d'Auvours 44000 Nantes,,,,,,,,,,,,47.221374,-1.563522,1 Rue d'Auvours 44000 Nantes,0.96,housenumber,44109_0480_00001,1,Rue d'Auvours,,44000,Nantes,44; Loire-Atlantique; Pays de la Loire,44109,,,
44000,Maison de l'emploi Malakoff,8 Rue d'Angleterre 44000 Nantes,,,,,,,,,,,,47.214995,-1.526771,8 Rue d'Angleterre 44000 Nantes,0.96,housenumber,44109_0294_00008,8,Rue d'Angleterre,,44000,Nantes,44; Loire-Atlantique; Pays de la Loire,44109,,,
44000,CRIJ-CIJ,37 Rue Saint-Léonard 44000 Nantes,+33 2 51 72 94 50,http://www.infos-jeunes.fr/,,,,,,,,,,47.218567,-1.555306,37 Rue Saint Léonard 44000 Nantes,0.96,housenumber,44109_7672_00037,37,Rue Saint Léonard,,44000,Nantes,44; Loire-Atlantique; Pays de la Loire,44109,,,
44000,,1 BIS Place Saint-Similien 44000 Nantes,,https://www.nantes.fr/ccas,,,Conseils sur les droits sociaux,,,,,,,47.220022,-1.558402,1 bis Place Saint Similien 44000 Nantes,0.96,housenumber,44109_7748_00001_bis,1 bis,Place Saint Similien,,44000,Nantes,44; Loire-Atlantique; Pays de la Loire,44109,,,
44100,Dclic pÔle informatique des Dervallières,5 Rue Auguste Renoir 44100 Nantes,,,,,,,,,,,,47.223253,-1.595152,5 Rue Auguste Renoir 44100 Nantes,0.96,housenumber,44109_0452_00005,5,Rue Auguste Renoir,,44100,Nantes,44; Loire-Atlantique; Pays de la Loire,44109,,,
44100,Maison de l'emploi Dervallières,8 Rue Henri Matisse 44100 Nantes,,,,,,,,,,,,47.223083,-1.596759,8 Rue Henri Matisse 44100 Nantes,0.96,housenumber,44109_4151_00008,8,Rue Henri Matisse,,44100,Nantes,44; Loire-Atlantique; Pays de la Loire,44109,,,
44100,Maison de l'emploi Bellevue,46 Boulevard Jean Moulin 44100 Nantes,,,,,,,,,,,,47.205877,-1.601532,46 Boulevard Jean Moulin 44100 Nantes,0.96,housenumber,44109_4503_00046,46,Boulevard Jean Moulin,,44100,Nantes,44; Loire-Atlantique; Pays de la Loire,44109,,,
44100,,46 Boulevard Jean Moulin 44100 Nantes,,,,,,gratuit,,,,,,47.205877,-1.601532,46 Boulevard Jean Moulin 44100 Nantes,0.96,housenumber,44109_4503_00046,46,Boulevard Jean Moulin,,44100,Nantes,44; Loire-Atlantique; Pays de la Loire,44109,,,
44100,Médiathèque Lisa Bresner,23 Boulevard Émile Romanet 44100 Nantes,,,,,accompagnement numérique les jeudis après-midi.,,,,,,,47.209868,-1.602584,23 Boulevard Emile Romanet 44100 Nantes,0.96,housenumber,44109_2794_00023,23,Boulevard Emile Romanet,,44100,Nantes,44; Loire-Atlantique; Pays de la Loire,44109,,,
44100,,5 Rue du Gers 44100 Nantes,,,,,,,,,,,,47.212446,-1.586855,5 Rue du Prinquiau 44100 Nantes,0.58,housenumber,44109_7006_00005,5,Rue du Prinquiau,,44100,Nantes,44; Loire-Atlantique; Pays de la Loire,44109,,,
44100,Maison des habitants et du citoyen,1 Place des Lauriers 44100 Nantes,,,,,initiation possible sur ordinateur,,,,smartphone et tablette,,,47.204346,-1.604948,1 Place des Lauriers 44100 Nantes,0.96,housenumber,44109_4825_00001,1,Place des Lauriers,,44100,Nantes,44; Loire-Atlantique; Pays de la Loire,44109,,,
44100,,Rue de Saint-Brevin 44100 Nantes,,,,,,,,,,,,47.2067,-1.596558,Rue de Saint Brévin 44100 Nantes,0.96,street,44109_7542,,Rue de Saint Brévin,,44100,Nantes,44; Loire-Atlantique; Pays de la Loire,44109,,,
44100,La Maison des habitants et du citoyen,1 Place des Lauriers 44100 Nantes,,,,,,,,,,,,47.204346,-1.604948,1 Place des Lauriers 44100 Nantes,0.96,housenumber,44109_4825_00001,1,Place des Lauriers,,44100,Nantes,44; Loire-Atlantique; Pays de la Loire,44109,,,
44110,Maison de l'Emploi du Pays de Châteaubriant,16 Rue Gabriel de la Tour 44110 Châteaubriant,02 28 04 06 33,https://www.cc-chateaubriant-derval.fr,Directrice Christine GALISSON,mailto:cc-chateaubriant-derval.fr,La Communauté de Communes propose différents types de formation principalement des formations au BAFA (Brevet d’aptitude aux fonctions d’animateur); au PSC1 (Prévention et Secours Civiques de niveau 1) et aussi des formations au BAFD (Brevet d’aptitude au,Sans emplois / résidents CC Châteaubriant,,Sans emploi,un espace numérique qui regroupe toutes les offres d'emploi locales éditées par Pôle Emploi et ses partenaires; mais permettra également à tous; chefs d’entreprises; commerçants; artisans; particuliers employeurs; de publier leurs offres facilement et dir,,,47.711728,-1.373913,16 Rue Gabriel Delatour 44110 Châteaubriant,0.83,housenumber,44036_0635_00016,16,Rue Gabriel Delatour,,44110,Châteaubriant,44; Loire-Atlantique; Pays de la Loire,44036,,,
44110,Pôle emploi Châteaubriant,10 Rue d'Ancenis 44110 Châteaubriant,39 46,https://www.pole-emploi.fr/annuaire/chateaubriant-44036,,,,Gratuit,,,,,,47.717716,-1.370852,10 Rue d'Ancenis 44110 Châteaubriant,0.95,housenumber,44036_0030_00010,10,Rue d'Ancenis,,44110,Châteaubriant,44; Loire-Atlantique; Pays de la Loire,44036,,,
44110,Bibliotheque de Villepot,Rue de la Chapelle 44110 Villepot,240281039,http://www.cc-castelbriantais.fr/reseau-des-bibliotheques,,,,,,,,,,47.775288,-1.27694,Rue de la Chapelle 44110 Villepot,0.94,street,44218_0023,,Rue de la Chapelle,,44110,Villepot,44; Loire-Atlantique; Pays de la Loire,44218,,,
44110,Bibliotheque LOUISFERT,4 Rue de la République 44110 Louisfert,240813183,https://castelbriantais.e-sezhame.fr/node/content/nid/14403,,,,,,,,,,47.676502,-1.434035,4 Rue de la République 44110 Louisfert,0.94,housenumber,44085_0255_00004,4,Rue de la République,,44110,Louisfert,44; Loire-Atlantique; Pays de la Loire,44085,,,
44110,Bibliothèque  de Soudan,Rue Julien Masson 44110 Soudan,240077451,http://www.cc-castelbriantais.fr/reseau-des-bibliotheques,,,,80€ hors commune,,,,,,47.737206,-1.304765,Rue Julien Masson 44110 Soudan,0.94,street,44199_0670,,Rue Julien Masson,,44110,Soudan,44; Loire-Atlantique; Pays de la Loire,44199,,,
44110,Bibliothèque Noyal-sur-Brutz,5 Rue des Troènes 44110 Noyal-sur-Brutz,02 40 28 09 58,http://www.cc-castelbriantais.fr/reseau-des-bibliotheques,,,,,,,1 poste informatique à disposition,,,47.77471,-1.342405,5 Rue des Troènes 44110 Noyal-sur-Brutz,0.94,housenumber,44112_0180_00005,5,Rue des Troènes,,44110,Noyal-sur-Brutz,44; Loire-Atlantique; Pays de la Loire,44112,,,
44110,Bliblioth?Îque Erbray,4 Rue du Rocher 44110 Erbray,02 40 28 35 32,http://www.cc-castelbriantais.fr/reseau-des-bibliotheques,,,Lieu de lecture et d'activités.,gratuit,,,,,,47.655525,-1.318018,4 Rue du Rocher 44110 Erbray,0.94,housenumber,44054_0613_00004,4,Rue du Rocher,,44110,Erbray,44; Loire-Atlantique; Pays de la Loire,44054,,,
44110,Médiathèque Chateaubriant,6 Place Saint-Nicolas 44110 Châteaubriant,240810333,http://www.mairie-chateaubriant.fr/mediatheque-intercommunale/,,,,6€ pour les résidents hors communauté de communes Carte pass plus :- Pour les résidents de communauté de communes (tarif réduit 12€ / tarif normal 18€)-Pour les résidents hors communautés de communes (tarif réduit 18€ / tarif normal 24€),,,,,,47.719159,-1.376855,6 Place Saint-nicolas 44110 Châteaubriant,0.95,housenumber,44036_1430_00006,6,Place Saint-nicolas,,44110,Châteaubriant,44; Loire-Atlantique; Pays de la Loire,44036,,,
44117,Bibliothèque de saint-André-des-Eaux,Rue des Guifettes 44117 Saint-André-des-Eaux,251106264,http://bibliotheque.saint-andre-des-eaux.fr,A côté du terrain de football,,,gratuit,,,,,,47.32026,-2.3071,Rue des Guifettes 44117 Saint-André-des-Eaux,0.95,street,44151_0065,,Rue des Guifettes,,44117,Saint-André-des-Eaux,44; Loire-Atlantique; Pays de la Loire,44151,,,
44119,CCAS Grandchamp des fontaines,25 Avenue du Général de Gaulle 44119 Grandchamps-des-Fontaines,240771326,http://www.grandchampdesfontaines.fr/mairie/services-municipaux-1999/ccas-301.html?cHash=f7a91b93291d711ac66f686a531a2273,,,,Gratuit,,,,,,47.364335,-1.60597,25 Avenue du Général de Gaulle 44119 Grandchamps-des-Fontaines,0.95,housenumber,44066_0140_00025,25,Avenue du Général de Gaulle,,44119,Grandchamps-des-Fontaines,44; Loire-Atlantique; Pays de la Loire,44066,,,
44119,,2 Rue des Cèdres 44119 Grandchamps-des-Fontaines,,,,,,,,,,,,47.363845,-1.607129,2 Rue des Cèdres 44119 Grandchamps-des-Fontaines,0.95,housenumber,44066_0015_00002,2,Rue des Cèdres,,44119,Grandchamps-des-Fontaines,44; Loire-Atlantique; Pays de la Loire,44066,,,
44119,Maison de l'emploi Grandchamp-des-fontaines,1 Rue des Cèdres 44119 Grandchamps-des-Fontaines,251121094,http://www.cceg.fr/annuaire-des-structures-192/maison-de-l-emploi-et-de-la-formation-grandchamp-des-fontaines-85.html?cHash=f1888d85829b12fa37a18e7e73806223,,,Lieu de formation lié l'emploi.,gratuit,,,,,,47.364131,-1.606247,1 Rue des Cèdres 44119 Grandchamps-des-Fontaines,0.95,housenumber,44066_0015_00001,1,Rue des Cèdres,,44119,Grandchamps-des-Fontaines,44; Loire-Atlantique; Pays de la Loire,44066,,,
44119,Médiathèque de Grandchamp des fontaines,Rue de Curette 44119 Grandchamps-des-Fontaines,249623970,http://www.grandchampdesfontaines.fr/culture-sports-loisirs/culture/mediatheque-victor-hugo-2057.html,,,Espace documentaire et point d'accès numérique.,,,,,,,47.364778,-1.607059,Rue de Curette 44119 Grandchamps-des-Fontaines,0.95,street,44066_0026,,Rue de Curette,,44119,Grandchamps-des-Fontaines,44; Loire-Atlantique; Pays de la Loire,44066,,,
44120,Service Jeunesse,15 Rue Aristide Briand 44120 Vertou,,,,,,,,,,,,47.167415,-1.473814,15 Rue Aristide Briand 44120 Vertou,0.95,housenumber,44215_0060_00015,15,Rue Aristide Briand,,44120,Vertou,44; Loire-Atlantique; Pays de la Loire,44215,,,
44130,"Bibliothèque municipale ""Le Pot a Mots""",Place Notre-Dame du Châtellier 44310 Saint-Lumine-de-Coutais,240029456,,,,,,,,,,,47.055148,-1.726722,Place Notre Dame du Chatellier 44310 Saint-Lumine-de-Coutais,0.94,street,44174_7hljxe,,Place Notre Dame du Chatellier,,44310,Saint-Lumine-de-Coutais,44; Loire-Atlantique; Pays de la Loire,44174,,,
44130,Espace Numérique Centre socioculturel Tempo,7 Rue du 11 Novembre 44130 Blain,,,,,,,,,,,,47.476321,-1.763342,7 Rue du 11 Novembre 44130 Blain,0.95,housenumber,44015_0493_00007,7,Rue du 11 Novembre,,44130,Blain,44; Loire-Atlantique; Pays de la Loire,44015,,,
44130,Médiathèque de Fay de bretagne,2 Rue Georges Sicard 44130 Fay-de-Bretagne,240873365,http://www.faydebretagne.fr/jsp/site/Portal.jsp?page_id=120,Espace de lecture et point d'acc?Îs num??rique.,,,,,,,,,47.415363,-1.792132,2 Rue Georges Sicard 44130 Fay-de-Bretagne,0.94,housenumber,44056_0065_00002,2,Rue Georges Sicard,,44130,Fay-de-Bretagne,44; Loire-Atlantique; Pays de la Loire,44056,,,
44130,,7 Rue du 11 Novembre 44130 Blain,,http://csctempo.fr/?lang=fr,,,Lieu de rencontre et de partage autour de jeu et de la convivialité,,,,,,,47.476321,-1.763342,7 Rue du 11 Novembre 44130 Blain,0.95,housenumber,44015_0493_00007,7,Rue du 11 Novembre,,44130,Blain,44; Loire-Atlantique; Pays de la Loire,44015,,,
44130,Maison de l'emploi Blain,7 Rue Victor Schoelcher 44130 Blain,240799901,https://www.pays-de-blain.com/economie-emploi/emploi-et-formation/,,,Lieu d'information et de formation dans la recherche d'emploi,gratuit,,,,,,47.47432,-1.761281,7 Rue Victor Schoelcher 44130 Blain,0.95,housenumber,44015_0799_00007,7,Rue Victor Schoelcher,,44130,Blain,44; Loire-Atlantique; Pays de la Loire,44015,,,
44140,POINT RELAIS EMPLOI,Rue de la Mairie 44140 Montbert,,,,,,,,,,,,47.055874,-1.484749,Rue de la Jarrie 44140 Montbert,0.73,street,44102_0077,,Rue de la Jarrie,,44140,Montbert,44; Loire-Atlantique; Pays de la Loire,44102,,,
44150,Point Info Mobile,19 Rue Général Leclerc 44510 Le Pouliguen,240423105,http://www.tourisme-lepouliguen.fr/wifi-au-pouliguen.html,,,,Gratuit,,,,,,47.278353,-2.429486,19 Rue Général Leclerc 44510 Le Pouliguen,0.95,housenumber,44135_0530_00019,19,Rue Général Leclerc,,44510,Le Pouliguen,44; Loire-Atlantique; Pays de la Loire,44135,,,
44150,Mission locale d'Ancenis,30 Place Francis Robert 44150 Ancenis,02 40 96 44 30,http://www.missionlocalepaysancenis.fr/,,accueil@mlpaysancenis.fr,Écoute; information; orientation et accompagnement des jeunes de 16 à 25 ans,jeunes 16/25 ans / réside dans le pays d’Ancenis,,jeunes 16/25 ans,Espace d’accueil avec des ordinateurs et accès wifi,,,47.370095,-1.178797,30 Avenue Francis Robert 44150 Ancenis-Saint-Géréon,0.61,housenumber,44003_0320_00030,30,Avenue Francis Robert,,44150,Ancenis-Saint-Géréon,44; Loire-Atlantique; Pays de la Loire,44003,,,
44150,Pôle emploi,336 Rue de Chateaubriand 44150 Ancenis,3949,https://www.pole-emploi.fr/accueil/,,,Vous trouverez ici des ordinateurs mis à votre disposition et qui vous permettront d'avoir accès à l'ensemble de l'offre de service numérique Pôle Emploi.,gratuit,,,,,,47.377984,-1.181473,336 Rue Francois Rene Chateaubriand 44150 Ancenis-Saint-Géréon,0.65,housenumber,44003_0795_00336,336,Rue Francois Rene Chateaubriand,,44150,Ancenis-Saint-Géréon,44; Loire-Atlantique; Pays de la Loire,44003,,,
44150,Bibliothèque Marcel Rouvreau,Port Arthur (Anetz) 44150 Vair-sur-Loire,240833195,http://bibliofil.pays-ancenis.fr/,Accès à un point numérique.,,,gratuit,,,,,,47.377928,-1.104773,Rue de Port Arthur 44150 Vair-sur-Loire,0.68,street,44004_0060,,Rue de Port Arthur,,44150,Vair-sur-Loire,44; Loire-Atlantique; Pays de la Loire,44163,44004,Anetz,
44150,Mairie d'Ancenis,Place du Maréchal Foch 44150 Ancenis,240838700,https://www.ancenis.fr,,,,gratuit,,,,,,47.365559,-1.176597,Place du Marechal Foch 44150 Ancenis-Saint-Géréon,0.74,street,44003_0610,,Place du Marechal Foch,,44150,Ancenis-Saint-Géréon,44; Loire-Atlantique; Pays de la Loire,44003,,,
44150,Relais Caf du Pays de Vallet,20 Rue émile Gabory 44330 Vallet,228039089,http://www.caf.fr/,,,,gratuit,,,,,,47.162579,-1.26869,20 Rue Emile Gabory 44330 Vallet,0.95,housenumber,44212_0500_00020,20,Rue Emile Gabory,,44330,Vallet,44; Loire-Atlantique; Pays de la Loire,44212,,,
44150,Point relais emploi de Vallet,1 Place Charles de Gaulle 44330 Vallet,251719212,,,,Accès libre aux ordinateurs et accompagnement aux démarches sur site de la CAF.,gratuit,,,,,,47.160905,-1.26543,1 Place Charles de Gaulle 44330 Vallet,0.95,housenumber,44212_0300_00001,1,Place Charles de Gaulle,,44330,Vallet,44; Loire-Atlantique; Pays de la Loire,44212,,,
44150,Maison de l'Etat,Rue du Docteur Bousseau 44150 Ancenis,240830850,http://www.loire-atlantique.gouv.fr/Services-de-l-Etat/Prefecture-et-sous-prefectures/Sous-prefecture-de-Chateaubriant-Ancenis,,,Vous trouverez ici un point d'accès numérique et services vos démarches de certificats d'immatriculation et de permis de conduire.,gratuit,,,,,,47.363598,-1.184726,Rue du Docteur Bousseau 44150 Ancenis-Saint-Géréon,0.75,street,44003_resphg,,Rue du Docteur Bousseau,,44150,Ancenis-Saint-Géréon,44; Loire-Atlantique; Pays de la Loire,44003,,,
44150,,5 Place Armand de Béthune 44150 Ancenis,,https://fablabancenis.wordpress.com/,,,,,,ouvert à tous,Machines,,,47.364199,-1.19173,5 Place Armand de Bethune 44150 Ancenis-Saint-Géréon,0.76,housenumber,44003_cisdmi_00005,5,Place Armand de Bethune,,44150,Ancenis-Saint-Géréon,44; Loire-Atlantique; Pays de la Loire,44003,,,
44150,,30 Place Francis Robert 44150 Ancenis,,,,,4 types de prestations ouvertes à tous,,,,,,,47.370095,-1.178797,30 Avenue Francis Robert 44150 Ancenis-Saint-Géréon,0.61,housenumber,44003_0320_00030,30,Avenue Francis Robert,,44150,Ancenis-Saint-Géréon,44; Loire-Atlantique; Pays de la Loire,44003,,,
44150,,30 Place Francis Robert 44150 Ancenis,,,,,Espace d'accueil et accompagnement social et professionnel : orientation,,,,,,,47.370095,-1.178797,30 Avenue Francis Robert 44150 Ancenis-Saint-Géréon,0.61,housenumber,44003_0320_00030,30,Avenue Francis Robert,,44150,Ancenis-Saint-Géréon,44; Loire-Atlantique; Pays de la Loire,44003,,,
44150,Médiathèque Ancenis,Place de la République 44150 Ancenis,,http://bibliofil.pays-ancenis.fr/,,,Médiathèque qui propose l'emprunt ou la lecture sur place de divers supports culturels + accompagnement individuel sur demande des personnes,,,,,,,47.365521,-1.183551,Place de la Republique 44150 Ancenis-Saint-Géréon,0.74,street,44003_0800,,Place de la Republique,,44150,Ancenis-Saint-Géréon,44; Loire-Atlantique; Pays de la Loire,44003,,,
44160,Médiathèque Georges Sand,25 Rue de la Mairie 44160 Besné,240617635,http://mediatheque.besne.fr,,,Bibliothèque municipale à deux pas de la Mairie et de l’église.,Gratuit,,,,,,47.39651,-2.09206,25 Rue de la Mairie 44160 Besné,0.94,housenumber,44013_0097_00025,25,Rue de la Mairie,,44160,Besné,44; Loire-Atlantique; Pays de la Loire,44013,,,
44160,Médiathèque de Pont-château,3 Rue du Chène Vert 44160 Pontchâteau,240016117,http://www.cc-paysdepontchateau.fr/contacts/mediatheque-de-pont-chateau,,,,Gratuit,,,,,,47.431518,-2.075313,3 Rue du Chêne Vert 44160 Pontchâteau,0.95,housenumber,44129_0114_00003,3,Rue du Chêne Vert,,44160,Pontchâteau,44; Loire-Atlantique; Pays de la Loire,44129,,,
44160,Médiathèque  de Crossac,Impasse des Petits Matelots 44160 Crossac,240010608,http://www.cc-paysdepontchateau.fr/contacts/bibliotheque-de-crossac-2,,,,gratuit,,,,,,47.411034,-2.172382,Impasse des Petits Matelots 44160 Crossac,0.94,street,44050_0134,,Impasse des Petits Matelots,,44160,Crossac,44; Loire-Atlantique; Pays de la Loire,44050,,,
44160,Bibliothèque,2 Rue du Mortier Plat 44160 Sainte-Anne-sur-Brivet,240918488,http://www.sainte-anne-sur-brivet.fr/bibliotheque,,,,gratuit,,,,,,47.458925,-2.005013,2 Rue du Mortier Plat 44160 Sainte-Anne-sur-Brivet,0.94,housenumber,44152_0126_00002,2,Rue du Mortier Plat,,44160,Sainte-Anne-sur-Brivet,44; Loire-Atlantique; Pays de la Loire,44152,,,
44160,Relais CAF,7 Place de l'église 44160 Pontchâteau,0 810 25 44 10,https://www.loire-atlantique.fr/jcms/classement-des-contenus/par-territoire/communaute-de-communes-du-pays-de-pont-chateau-saint-gildas-des-bois/caf-relais-de-pontchateau-fr-p2_638495,,,,gratuit,,,,,,47.438199,-2.089303,7 Place de l'Eglise 44160 Pontchâteau,0.95,housenumber,44129_0220_00007,7,Place de l'Eglise,,44160,Pontchâteau,44; Loire-Atlantique; Pays de la Loire,44129,,,
44160,Bibliothèque de Sainte-Reine-de-Bretagne,7 Rue du Père de Montfort 44160 Sainte-Reine-de-Bretagne,251108648,www.cc-paysdepontchateau.fr/contacts/bibliotheque-de-sainte-reine-de-bretagne-2/,,,,gratuit,,,,,,47.440635,-2.190881,7 Rue du Père de Montfort 44160 Sainte-Reine-de-Bretagne,0.94,housenumber,44189_0140_00007,7,Rue du Père de Montfort,,44160,Sainte-Reine-de-Bretagne,44; Loire-Atlantique; Pays de la Loire,44189,,,
44170,CSC lamano de Nozay,Le Patis Jourdeau 44170 Nozay,240793504,http://lamano.centres-sociaux.fr/,,,,adhésion individuelle -18 ans: 8€  adhésion individuelle +18 ans : 10€ adhésion familiale : 15€,,,,,,47.56188,-1.622391,Le Pâtis Jourdeau 44170 Nozay,0.95,street,44113_b456,,Le Pâtis Jourdeau,,44170,Nozay,44; Loire-Atlantique; Pays de la Loire,44113,,,
44170,Cyber-base emploi de Nozay,9 Rue de l'église 44170 Nozay,,,,,,,,,,,,47.565797,-1.625008,9 Rue de l'Eglise 44170 Nozay,0.95,housenumber,44113_0720_00009,9,Rue de l'Eglise,,44170,Nozay,44; Loire-Atlantique; Pays de la Loire,44113,,,
44170,Médiathèque  de Jans,12 Route de Nozay 44170 Jans,240799515,http://www.biblios-ccsd.net/cms/articleview/id/121,,,,Gratuit,,,,,,47.621228,-1.614444,12 Route de Nozay 44170 Jans,0.94,housenumber,44076_0563_00012,12,Route de Nozay,,44170,Jans,44; Loire-Atlantique; Pays de la Loire,44076,,,
44170,Bibliotheque de Vay,5 Rue Principale 44170 Vay,240795646,http://www.cc-nozay-bibliotheques.fr/index/index/id_profil/1,,,,-20ans:gratuit tarif +20ans:7€ habitant CCRN et 10€ Hors,,,,,,47.554607,-1.701621,5 Rue Principale 44170 Vay,0.94,housenumber,44214_0090_00005,5,Rue Principale,,44170,Vay,44; Loire-Atlantique; Pays de la Loire,44214,,,
44170,Bibliotheque de Nozay,21 Rue Alexis Letourneau 44170 Nozay,02 40 79 31 65,http://www.cc-nozay-bibliotheques.fr/index/index/id_profil/1,,,,-20 Ans :gratuit + 20Ans:7€+20 Hors CCRN:10€,,,,,,47.564644,-1.62652,21 Rue Alexis Letourneau 44170 Nozay,0.95,housenumber,44113_0060_00021,21,Rue Alexis Letourneau,,44170,Nozay,44; Loire-Atlantique; Pays de la Loire,44113,,,
44170,Bibliothèque de la grigonnais,5 Rue de l'Abbé- Merel 44170 La Grigonnais,02 40 87 52 07,https://www.lagrigonnais.fr/Bibliotheque-de-la-Grigonnais-Le,,,,inscription pour l’emprunt de livre ou document :10€ pour une famille et 6€ individuellement,,,,,,47.526399,-1.66738,5 Rue de l'Abbe Merel 44170 La Grigonnais,0.94,housenumber,44224_0042_00005,5,Rue de l'Abbe Merel,,44170,La Grigonnais,44; Loire-Atlantique; Pays de la Loire,44224,,,
44170,Cybercentre de Nozay,Route de Nort Sur Erdre 44170 Nozay,,,,,,Accès libre gratuit,,,,,,47.562419,-1.625874,Route de Nort-sur-erdre 44170 Nozay,0.95,street,44113_1680,,Route de Nort-sur-erdre,,44170,Nozay,44; Loire-Atlantique; Pays de la Loire,44113,,,
44170,Bibliothèque  de Tréffieux,2 Place Saint-Grégoire 44170 Treffieux,240874159,http://www.cc-nozay-bibliotheques.fr/index/index/id_profil/1,,,,tarif -20ans gratuit tarif +20ans:7.00€ tarif+20 hors du CCRN:10 €,,,,,,47.619608,-1.537584,2 Place Saint-grégoire 44170 Treffieux,0.94,housenumber,44208_0375_00002,2,Place Saint-grégoire,,44170,Treffieux,44; Loire-Atlantique; Pays de la Loire,44208,,,
44170,,18 Rue Saint-Martin 44170 Marsac-sur-Don,,,,,,wifi gratuite,,,1 postes informatiques internet et outils bureautiques,,,47.596953,-1.677235,18 Rue Saint Martin 44170 Marsac-sur-Don,0.94,housenumber,44091_0022_00018,18,Rue Saint Martin,,44170,Marsac-sur-Don,44; Loire-Atlantique; Pays de la Loire,44091,,,
44170,Bibliothèque d'Abbaretz,8 Rue des écoles 44170 Abbaretz,240872184,http://www.cc-nozay-bibliotheques.fr/index/index/id_profil/1,,,,Tarif -20 ans : gratuit. Tarif + 20 ans : 7.00€. Tarif + 20 ans hors Communauté de Communes de la Région de Nozay :10.00 €,,,,,,47.552072,-1.532326,8 Rue des Ecoles 44170 Abbaretz,0.94,housenumber,44001_0293_00008,8,Rue des Ecoles,,44170,Abbaretz,44; Loire-Atlantique; Pays de la Loire,44001,,,
44190,Caisse d'Allocations Familiales Clisson,2 Rue du Docteur Doussin 44190 Clisson,240540212,http://www.caf.fr/allocataires/caf-de-loire-atlantique/actualites,,,Relais CAF de Clisson,Gratuit,,,,,,47.092043,-1.290544,2 Rue du Docteur Doussain 44190 Clisson,0.88,housenumber,44043_0708_00002,2,Rue du Docteur Doussain,,44190,Clisson,44; Loire-Atlantique; Pays de la Loire,44043,,,
44190,,1 Route de Saint-Fiacre 44190 Gorges,,,,,L'association a pour objet de fédérer une communauté de travailleurs indépendants au sein de l'agglomération Clisson Sèvres et Maine avec 3 objectifs:,Gratuit,,,,,,47.100089,-1.306367,1 Route de Saint-fiacre 44190 Gorges,0.95,housenumber,44064_0140_00001,1,Route de Saint-fiacre,,44190,Gorges,44; Loire-Atlantique; Pays de la Loire,44064,,,
44190,,Esplanade de Klettgau 44190 Clisson,,https://gullivigne.org,Association d'utilisateurs de logiciels libres Atelier débutants bureautique,,,,,,,,,47.094181,-1.290447,Esplanade de Klettgau 44190 Clisson,0.95,street,44043_1035,,Esplanade de Klettgau,,44190,Clisson,44; Loire-Atlantique; Pays de la Loire,44043,,,
44190,,4 Rue des Châtaigniers 44190 Clisson,,,,,Recyclerie,Gratuit,,,,,,47.077672,-1.282695,4 Rue des Châtaigniers 44190 Clisson,0.95,housenumber,44043_0316_00004,4,Rue des Châtaigniers,,44190,Clisson,44; Loire-Atlantique; Pays de la Loire,44043,,,
44190,Médiathèque Geneviève Couteaux,1 Place Saint-Jacques 44190 Clisson,,https://mediatheque-clisson.net,,,Espace de lecture et documentation offrant un service numérique,,,,,,,47.087877,-1.28351,1 Place Saint-jacques 44190 Clisson,0.95,housenumber,44043_1700_00001,1,Place Saint-jacques,,44190,Clisson,44; Loire-Atlantique; Pays de la Loire,44043,,,
44190,,3 Place Maurice Renoul 44190 Gorges,,,,,,,,Espace documentaire et point d'accès numérique.,,,,47.101674,-1.303662,3 Place Maurice Renoul 44190 Gorges,0.95,housenumber,44064_0115_00003,3,Place Maurice Renoul,,44190,Gorges,44; Loire-Atlantique; Pays de la Loire,44064,,,
44190,Pôle Emploi Clisson,7 Allée du Chantre 44190 Clisson,,,,,création d'un espace personnel Pôle Emploi  aide rédaction de CV et lettre motivation,gratuit,,,,,,47.096615,-1.284243,7 Allée du Chantre 44190 Clisson,0.95,housenumber,44043_0309_00007,7,Allée du Chantre,,44190,Clisson,44; Loire-Atlantique; Pays de la Loire,44043,,,
44200,,10 Rue René Viviani 44200 Nantes,,,,,,,,,,,,47.208719,-1.535502,10 Rue René Viviani 44200 Nantes,0.96,housenumber,44109_7250_00010,10,Rue René Viviani,,44200,Nantes,44; Loire-Atlantique; Pays de la Loire,44109,,,
44200,ACCOORD Cyber Espace de Nantes,2 Rue Conan Mériadec 44200 Nantes,,,,,,,,,,,,47.206672,-1.550772,2 Rue Conan Mériadec 44200 Nantes,0.96,housenumber,44109_2104_00002,2,Rue Conan Mériadec,,44200,Nantes,44; Loire-Atlantique; Pays de la Loire,44109,,,
44210,CCAS Pornic,1 Rue Jean Sarment 44210 Pornic,240829700,,,,,gratuit,,,,,,47.123972,-2.112024,1 Rue Jean Sarment 44210 Pornic,0.95,housenumber,44131_1973_00001,1,Rue Jean Sarment,,44210,Pornic,44; Loire-Atlantique; Pays de la Loire,44131,,,
44210,Cybercentre de Pornic -Médiathèque,35 Rue Tartifume 44210 Pornic,,,,,,,,,,,,47.116741,-2.100931,35 Rue Tartifume 44210 Pornic,0.95,housenumber,44131_4460_00035,35,Rue Tartifume,,44210,Pornic,44; Loire-Atlantique; Pays de la Loire,44131,,,
44210,Cybercentre Pornic,35 Rue Tartifume 44210 Pornic,,http://www.mediatheque-pornic.fr/,,,,il faut être abonné à la médiathèque et rêgler sur place si ateliers payants.,,,,,,47.116741,-2.100931,35 Rue Tartifume 44210 Pornic,0.95,housenumber,44131_4460_00035,35,Rue Tartifume,,44210,Pornic,44; Loire-Atlantique; Pays de la Loire,44131,,,
44210,,1 BIS Rue Jean Sarment 44210 Pornic,,,,,Permanence CAF,,,,,,,47.124345,-2.111678,1 bis Rue Jean Sarment 44210 Pornic,0.95,housenumber,44131_1973_00001_bis,1 bis,Rue Jean Sarment,,44210,Pornic,44; Loire-Atlantique; Pays de la Loire,44131,,,
44210,Centre Médico-Social,35 Rue de la Dette 44210 Pornic,240822030,,,,,gratuit,,,,,,47.119453,-2.106113,35 Rue de la Dette 44210 Pornic,0.95,housenumber,44131_1180_00035,35,Rue de la Dette,,44210,Pornic,44; Loire-Atlantique; Pays de la Loire,44131,,,
44210,Pôlle Emploi,62 Boulevard de Linz 44210 Pornic,,https://www.pole-emploi.fr/,,,,,,,,,,47.12195,-2.114091,62 Boulevard de Linz 44210 Pornic,0.95,housenumber,44131_3281_00062,62,Boulevard de Linz,,44210,Pornic,44; Loire-Atlantique; Pays de la Loire,44131,,,
44230,Centre Socioculturel de l'Allée Verte,1 Rue de l'Allée Verte 44230 Saint-Sébastien-sur-Loire,,,,,,,,,,,,47.195805,-1.487956,Rue de l'Allée Verte 44230 Saint-Sébastien-sur-Loire,0.92,street,44190_0030,,Rue de l'Allée Verte,,44230,Saint-Sébastien-sur-Loire,44; Loire-Atlantique; Pays de la Loire,44190,,,
44240,Médiathèque et ludothèque,Rue René Goscinny 44240 La Chapelle-sur-Erdre,,,,,,,,,,,,47.310427,-1.547685,Rue René Goscinny 44240 La Chapelle-sur-Erdre,0.95,street,44035_4404,,Rue René Goscinny,,44240,La Chapelle-sur-Erdre,44; Loire-Atlantique; Pays de la Loire,44035,,,
44240,Médiathèque Sucé-Sur-Erdre,101 Rue de la Mairie 44240 Sucé-sur-Erdre,240779521,http://www.bibliotheques.cceg.fr/index/index/id_profil/1,,,,-Gratuit pour les nouveaux Sucéens-Famille Sucéenne 10€ -Famille non Sucéenne 20€ Touriste (individuel) 5€,,,,,,47.340042,-1.526222,101 Rue de la Mairie 44240 Sucé-sur-Erdre,0.95,housenumber,44201_0220_00101,101,Rue de la Mairie,,44240,Sucé-sur-Erdre,44; Loire-Atlantique; Pays de la Loire,44201,,,
44250,Guichet Unique Emploi St-Brévin-les-Pins,6 Avenue Jules Ferry 44250 Saint-Brevin-les-Pins,240393701,http://saint-brevin.fr/mairie/guichet-unique-emploi.html,,,,gratuit,,,,,,47.248211,-2.165859,6 Avenue Jules Ferry 44250 Saint-Brevin-les-Pins,0.95,housenumber,44154_1590_00006,6,Avenue Jules Ferry,,44250,Saint-Brevin-les-Pins,44; Loire-Atlantique; Pays de la Loire,44154,,,
44250,Centre Médico-Social,8 Rue de la Résistance 44250 Saint-Brevin-les-Pins,240272585,,,,,gratuit,,,,,,47.246458,-2.16824,8 Rue de la Résistance 44250 Saint-Brevin-les-Pins,0.95,housenumber,44154_2510_00008,8,Rue de la Résistance,,44250,Saint-Brevin-les-Pins,44; Loire-Atlantique; Pays de la Loire,44154,,,
44250,Médiathèque Espace Jules Verne,30 Avenue Jules Verne 44250 Saint-Brevin-les-Pins,,,,,,accès gratuit / impression A4 0,,,,,,47.246741,-2.168529,30 Avenue Jules Verne 44250 Saint-Brevin-les-Pins,0.95,housenumber,44154_1610_00030,30,Avenue Jules Verne,,44250,Saint-Brevin-les-Pins,44; Loire-Atlantique; Pays de la Loire,44154,,,
44260,Médiathèque de Malville,8 Place de l'église 44260 Malville,47360577,,,,,Accès imprimante payante,,,,,,47.360577,-1.863804,8 Place de l'Eglise 44260 Malville,0.94,housenumber,44089_1410_00008,8,Place de l'Eglise,,44260,Malville,44; Loire-Atlantique; Pays de la Loire,44089,,,
44260,Médiathèque de Bouée,8 Place de l'église 44260 Bouée,240549787,http://www.mediatheques.estuaire-sillon.fr/bouee,Médiathèque intercommunale d'Estuaire et Sillon,,,gratuit,,,,,,47.319318,-1.910064,8 Place de l'Eglise 44260 Bouée,0.94,housenumber,44019_0408_00008,8,Place de l'Eglise,,44260,Bouée,44; Loire-Atlantique; Pays de la Loire,44019,,,
44260,Médiathèque de Lavau-sur-Loire,1 BIS Rue de la Mairie 44260 Lavau-sur-Loire,240040876,http://mediatheques.estuaire-sillon.fr/lavausurloire,,,,gratuit,,,,,,47.306235,-1.967544,1 bis Rue de la Mairie 44260 Lavau-sur-Loire,0.94,housenumber,44080_0040_00001_bis,1 bis,Rue de la Mairie,,44260,Lavau-sur-Loire,44; Loire-Atlantique; Pays de la Loire,44080,,,
44260,Médiathèque de la Chapelle-Launay,1 Rue du Sacré-Coeur 44260 La Chapelle-Launay,,http://www.lachapellelaunay.eu/-Bibliotheque-du-Moulin,,,,gratuit,,,,,,47.370807,-1.971237,1 Rue du Sacré-coeur 44260 La Chapelle-Launay,0.94,housenumber,44033_0077_00001,1,Rue du Sacré-coeur,,44260,La Chapelle-Launay,44; Loire-Atlantique; Pays de la Loire,44033,,,
44260,Relais CAF,3 Rue des Mésanges 44260 Savenay,0 810 25 44 10,https://www.loire-atlantique.fr/jcms/classement-des-contenus/lieux/lieux-d-info-habitat-logement/par-public/tout-public/caf-permanence-de-savenay-fr-p2_638500,,,,gratuit,,,,,,47.360328,-1.938762,3 Rue des Mésanges 44260 Savenay,0.95,housenumber,44195_1020_00003,3,Rue des Mésanges,,44260,Savenay,44; Loire-Atlantique; Pays de la Loire,44195,,,
44260,Bouillon de Cultures Malville,8 Place de l'église 44260 Malville,,http://www.bouillondecultures44.fr,,,,60€ par an,,,,,,47.360577,-1.863804,8 Place de l'Eglise 44260 Malville,0.94,housenumber,44089_1410_00008,8,Place de l'Eglise,,44260,Malville,44; Loire-Atlantique; Pays de la Loire,44089,,,
44260,Médiathèque de Savenay,Place de l'Hôtel de Ville 44260 Savenay,240569695,http://www.mediatheques.estuaire-sillon.fr/savenay,,,,gratuit,,,,,,47.359596,-1.943312,Place de l'Hôtel de Ville 44260 Savenay,0.95,street,44195_0660,,Place de l'Hôtel de Ville,,44260,Savenay,44; Loire-Atlantique; Pays de la Loire,44195,,,
44260,Médiathèque de Prinquiau,16 Rue de l'église 44260 Prinquiau,228017672,http://www.mediatheques.estuaire-sillon.fr/prinquiau,,,,gratuit,,,,,,47.362372,-2.009906,16 Rue de l'Eglise 44260 Prinquiau,0.94,housenumber,44137_0182_00016,16,Rue de l'Eglise,,44260,Prinquiau,44; Loire-Atlantique; Pays de la Loire,44137,,,
44270,Mairie Machecoul,5 Place de l'Auditoire (Machecoul) 44270 Machecoul-Saint-Mème,240023550,http://www.machecoul-saint-meme.fr/,,,Le point numérique CAF se situe dans le hall d'accueil de la mairie,Gratuit,,,,,,46.992397,-1.817506,5 Place de l'Auditoire 44270 Machecoul-Saint-Même,0.79,housenumber,44087_0080_00005,5,Place de l'Auditoire,,44270,Machecoul-Saint-Même,44; Loire-Atlantique; Pays de la Loire,44087,44087,Machecoul,
44270,Pôle Emploi Machecoul,19 Rue Marcel Brunelière (Machecoul) 44270 Machecoul-Saint-Mème,3949,https://www.pole-emploi.fr/accueil/,,,,gratuit,,,,,,46.986249,-1.812922,19 Rue Marcel Brunelière 44270 Machecoul-Saint-Même,0.8,housenumber,44087_1059_00019,19,Rue Marcel Brunelière,,44270,Machecoul-Saint-Même,44; Loire-Atlantique; Pays de la Loire,44087,44087,Machecoul,
44270,Bibliothèque de Machecoul Saint-Meme La Virgule,7 Rue des Bouchers (Machecoul) 44270 Machecoul-Saint-Mème,240314761,,La cyber-base est au sein de la biblioth?Îque de Machecoul,ateliers payants : 3?é¼/atelier pour les machecoulais / 4?é¼/atelier pour les communes ext??rieures,,,,,,,,46.992051,-1.820298,7 Rue des Bouchers 44270 Machecoul-Saint-Même,0.78,housenumber,44087_0200_00007,7,Rue des Bouchers,,44270,Machecoul-Saint-Même,44; Loire-Atlantique; Pays de la Loire,44087,44087,Machecoul,
44270,Centre Médico-Social,Boulevard des Prises (Machecoul) 44270 Machecoul-Saint-Mème,240785138,,,,,Gratuit,,,,,,46.995696,-1.815941,Boulevard des Prises 44270 Machecoul-Saint-Même,0.79,street,44087_1480,,Boulevard des Prises,,44270,Machecoul-Saint-Même,44; Loire-Atlantique; Pays de la Loire,44087,44087,Machecoul,
44270,CPAM Machecoul,16 Rue Alexandre Riou (Machecoul) 44270 Machecoul-Saint-Mème,,,,,,,,,,,,46.993278,-1.818278,16 Rue Alexandre Riou 44270 Machecoul-Saint-Même,0.79,housenumber,44087_0020_00016,16,Rue Alexandre Riou,,44270,Machecoul-Saint-Même,44; Loire-Atlantique; Pays de la Loire,44087,44087,Machecoul,
44290,Bibliothèque de Masserac,1 Rue Saint-Benoit 44290 Massérac,240793512,http://mediatheques.redon-agglomeration.bzh/index.php?option=com_content&view=article&id=490:masserac&catid=14:vos-mediatheques&Itemid=33,,,Espace de lecture et d'accès numérique.,Gratuit,,,,,,47.673075,-1.916476,1 Rue Saint Benoit 44290 Massérac,0.94,housenumber,44092_0450_00001,1,Rue Saint Benoit,,44290,Massérac,44; Loire-Atlantique; Pays de la Loire,44092,,,
44290,Médiathèque Marcelle Maurette,5 Rue Saint-Jean 44290 Guémené-Penfao,47.627881,,,,,14€ annuel / gratuit : -18 ans,,bénéficiaires minima sociaux et demandeurs d'emploi,,,,47.627881,-1.833236,5 Rue Saint Jean 44290 Guémené-Penfao,0.95,housenumber,44067_0404_00005,5,Rue Saint Jean,,44290,Guémené-Penfao,44; Loire-Atlantique; Pays de la Loire,44067,,,
44290,Point d'accueil CPAM Guémené-Penfao,2 Rue de Besle 44290 Guémené-Penfao,3646,https://www.ameli.fr,,,,gratuit,,,,,,47.628763,-1.833911,2 Rue de Beslé 44290 Guémené-Penfao,0.95,housenumber,44067_0020_00002,2,Rue de Beslé,,44290,Guémené-Penfao,44; Loire-Atlantique; Pays de la Loire,44067,,,
44290,Bibliothèque de Conquereuil,Place de l'église 44290 Conquereuil,240876502,http://mediatheques.redon-agglomeration.bzh/index.php?option=com_content&view=article&id=46:conquereuil&catid=14:vos-mediatheques&Itemid=72,,,,gratuit,,,,,,47.624605,-1.751116,Place de l'Eglise 44290 Conquereuil,0.94,street,44044_0018,,Place de l'Eglise,,44290,Conquereuil,44; Loire-Atlantique; Pays de la Loire,44044,,,
44300,,1 Rue Eugène Thomas 44300 Nantes,,,,,démarches administratives,,,,,,,47.261657,-1.574051,1 Rue Eugène Thomas 44300 Nantes,0.96,housenumber,44109_2975_00001,1,Rue Eugène Thomas,,44300,Nantes,44; Loire-Atlantique; Pays de la Loire,44109,,,
44300,,81 Rue des Renards 44300 Nantes,,,,,Réaliser CV et lettres de motivations,,,,,,,47.259021,-1.568023,81 Rue des Renards 44300 Nantes,0.96,housenumber,44109_7215_00081,81,Rue des Renards,,44300,Nantes,44; Loire-Atlantique; Pays de la Loire,44109,,,
44300,,6 Rue Samuel de Champlain 44300 Nantes,,,L'ACMNN propose diférents services au niveau des démarches numériques,,,,,,,,,47.260771,-1.574291,6 Rue Samuel de Champlain 44300 Nantes,0.96,housenumber,44109_7809_00006,6,Rue Samuel de Champlain,,44300,Nantes,44; Loire-Atlantique; Pays de la Loire,44109,,,
44300,,56 Route de la Chapelle-Sur-Erdre 44300 Nantes,,,,,,,,,,,,47.257391,-1.57551,56 Route de la Chapelle sur Erdre 44300 Nantes,0.96,housenumber,44109_1664_00056,56,Route de la Chapelle sur Erdre,,44300,Nantes,44; Loire-Atlantique; Pays de la Loire,44109,,,
44300,,3 Rue Eugène Thomas 44300 Nantes,,,,,,,,Le Centre Socioculturel du Bout des pavés reçoit  dans l’espace numérique dédié aux jeunes.,,,,47.261627,-1.573637,3 Rue Eugène Thomas 44300 Nantes,0.96,housenumber,44109_2975_00003,3,Rue Eugène Thomas,,44300,Nantes,44; Loire-Atlantique; Pays de la Loire,44109,,,
44300,,50 Boulevard Albert Einstein 44300 Nantes,,https://www.pole-emploi.fr/accueil/,,,Propose des formation et accompagne les personnes individuellement sur rendez-vous,,,Parents et enfants,,,,47.263329,-1.568553,50 Boulevard Albert Einstein 44300 Nantes,0.96,housenumber,44109_0083_00050,50,Boulevard Albert Einstein,,44300,Nantes,44; Loire-Atlantique; Pays de la Loire,44109,,,
44300,L'EclectiC,3 Rue Eugène Thomas 44300 Nantes,,,,,,,,,,,,47.261627,-1.573637,3 Rue Eugène Thomas 44300 Nantes,0.96,housenumber,44109_2975_00003,3,Rue Eugène Thomas,,44300,Nantes,44; Loire-Atlantique; Pays de la Loire,44109,,,
44300,Maison de l'emploi Espace Nord,81 Rue des Renards 44300 Nantes,,,,,,,,,,,,47.259021,-1.568023,81 Rue des Renards 44300 Nantes,0.96,housenumber,44109_7215_00081,81,Rue des Renards,,44300,Nantes,44; Loire-Atlantique; Pays de la Loire,44109,,,
44300,Maison de l'emploi Est,9 Rue Augustin Fresnel 44300 Nantes,,,,,,,,,,,,47.241731,-1.523723,9 Rue Augustin Fresnel 44300 Nantes,0.96,housenumber,44109_0459_00009,9,Rue Augustin Fresnel,,44300,Nantes,44; Loire-Atlantique; Pays de la Loire,44109,,,
44300,,3 Rue Eugène Thomas 44300 Nantes,,,,,Le bénévole (écrivain public) aide à toute sorte de démarches administratives rédactions de courriers,,,,,,,47.261627,-1.573637,3 Rue Eugène Thomas 44300 Nantes,0.96,housenumber,44109_2975_00003,3,Rue Eugène Thomas,,44300,Nantes,44; Loire-Atlantique; Pays de la Loire,44109,,,
44300,,60 Rue de la Bottière 44300 Nantes,,,,,Permanences numériques dans divers lieux sur Nantes; notamment à la Médiathèque Luce Courville et au Pôle associatif des Renards; afin d'aider le public à se familiariser avec l'outil informatique et les logiciels libres.,,,,,,,47.239147,-1.519944,60 Rue de la Bottière 44300 Nantes,0.96,housenumber,44109_1072_00060,60,Rue de la Bottière,,44300,Nantes,44; Loire-Atlantique; Pays de la Loire,44109,,,
44310,Point Numérique CAF St-Philibert-de-Gd-Lieu,24 Rue de l'Hôtel de Ville 44310 Saint-Philbert-de-Grand-Lieu,240789972,http://www.stphilbert.fr/,,,,,,,,,,47.037599,-1.642116,24 Rue de l'Hôtel de Ville 44310 Saint-Philbert-de-Grand-Lieu,0.95,housenumber,44188_0210_00024,24,Rue de l'Hôtel de Ville,,44310,Saint-Philbert-de-Grand-Lieu,44; Loire-Atlantique; Pays de la Loire,44188,,,
44310,Espace Jean de la Fontaine,10 Rue Charles de Gaulle 44310 La Limouzinière,240058282,https://www.mairie-la-limouziniere.com/culture-et-loisirs/espace-jean-de-la-fontaine/,,,,13€ /famille/an,,,,,,46.992321,-1.597142,10 Rue Charles de Gaulle 44310 La Limouzinière,0.94,housenumber,44083_0850_00010,10,Rue Charles de Gaulle,,44310,La Limouzinière,44; Loire-Atlantique; Pays de la Loire,44083,,,
44310,Cybercentre de Saint-Philbert-de-Grandlieu - ERN,12 Rue de l'Abreuvoir 44310 Saint-Philbert-de-Grand-Lieu,,,,,,,,,,,,47.038969,-1.640966,12 Rue de l'Abreuvoir 44310 Saint-Philbert-de-Grand-Lieu,0.95,housenumber,44188_0010_00012,12,Rue de l'Abreuvoir,,44310,Saint-Philbert-de-Grand-Lieu,44; Loire-Atlantique; Pays de la Loire,44188,,,
44310,Cybercentre St-Philibert-de-Gd-Lieu,12 Rue de l'Abreuvoir 44310 Saint-Philbert-de-Grand-Lieu,240780679,http://www.stphilbert.fr/,,,,10€/an : +18 ans / gratuit : -18 ans/demandeurs d'emploi,,,,,,47.038969,-1.640966,12 Rue de l'Abreuvoir 44310 Saint-Philbert-de-Grand-Lieu,0.95,housenumber,44188_0010_00012,12,Rue de l'Abreuvoir,,44310,Saint-Philbert-de-Grand-Lieu,44; Loire-Atlantique; Pays de la Loire,44188,,,
44320,Médiathèque - au bonheur des mots,7 Allée du Théâtre 44320 Chauvé,240643734,http://www.chauve.fr/la.mediatheque-municipale-au-bonheur-des-mots/,,,,,,,,,,47.150664,-1.986067,7 Allée du Théatre 44320 Chauvé,0.94,housenumber,44038_0190_00007,7,Allée du Théatre,,44320,Chauvé,44; Loire-Atlantique; Pays de la Loire,44038,,,
44330,Médiathèque Mille et une pages,16 Rue émile Gabory 44330 Vallet,24039184,bibliotheques.cc-vallet.fr,,,,gratuit,,,,,,47.16211,-1.268697,16 Rue Emile Gabory 44330 Vallet,0.95,housenumber,44212_0500_00016,16,Rue Emile Gabory,,44330,Vallet,44; Loire-Atlantique; Pays de la Loire,44212,,,
44330,Cybercentre de la Communauté de Communes de Vallet,1 BIS Place Charles de Gaulle 44330 Vallet,,,,,,,,,,,,47.160905,-1.26543,1 bis Place Charles de Gaulle 44330 Vallet,0.95,housenumber,44212_0300_00001_bis,1 bis,Place Charles de Gaulle,,44330,Vallet,44; Loire-Atlantique; Pays de la Loire,44212,,,
44340,,33 Avenue du Général de Gaulle 44340 Bouguenais,,,,,,,,,,,,47.177925,-1.618644,33 Avenue du Général de Gaulle 44340 Bouguenais,0.95,housenumber,44020_1620_00033,33,Avenue du Général de Gaulle,,44340,Bouguenais,44; Loire-Atlantique; Pays de la Loire,44020,,,
44350,,2 Avenue Anne de Bretagne 44350 Guérande,,,,,,,,,,,,47.331426,-2.427557,2 Avenue Anne de Bretagne 44350 Guérande,0.95,housenumber,44069_0043_00002,2,Avenue Anne de Bretagne,,44350,Guérande,44; Loire-Atlantique; Pays de la Loire,44069,,,
44350,Relais CAF,1 Impasse Anne de Bretagne 44350 Guérande,08 10 25 44 10,https://www.loire-atlantique.fr/jcms/classement-des-contenus/par-territoire/communaute-d-agglomeration-cap-atlantique/caf-relais-de-la-presqu-ile-guerandaise-fr-p2_638493,,,,gratuit,,,,,,47.331463,-2.426866,Impasse Anne de Bretagne 44350 Guérande,0.91,street,44069_0045,,Impasse Anne de Bretagne,,44350,Guérande,44; Loire-Atlantique; Pays de la Loire,44069,,,
44350,CYBERCENTRE,22 Faubourg Saint-Michel 44350 Guérande,,,,,,,,,,,,47.326562,-2.425138,22 Faubourg Saint-michel 44350 Guérande,0.95,housenumber,44069_2179_00022,22,Faubourg Saint-michel,,44350,Guérande,44; Loire-Atlantique; Pays de la Loire,44069,,,
44350,,2 Avenue Anne de Bretagne 44350 Guérande,,,,,,,,,,,,47.331426,-2.427557,2 Avenue Anne de Bretagne 44350 Guérande,0.95,housenumber,44069_0043_00002,2,Avenue Anne de Bretagne,,44350,Guérande,44; Loire-Atlantique; Pays de la Loire,44069,,,
44350,Mission locale de la Presque île Guérandaise,2 Rue Louis léon 44350 Guérande,240429676,http://mlpresquileguerandaise.com,,,,gratuit,,,,,,47.337506,-2.433484,2 Rue Louis Eon 44350 Guérande,0.86,housenumber,44069_1255_00002,2,Rue Louis Eon,,44350,Guérande,44; Loire-Atlantique; Pays de la Loire,44069,,,
44360,Médiathèque Jacques Fairand,2 Avenue des Quatre Vents 44360 Cordemais,240578220,http://www.bmcordemais.cassioweb.com,,,,gratuit,,,,,,47.290599,-1.877944,2 Avenue des 4 Vents 44360 Cordemais,0.75,housenumber,44045_0165_00002,2,Avenue des 4 Vents,,44360,Cordemais,44; Loire-Atlantique; Pays de la Loire,44045,,,
44360,Club informatique Micromédia,2 Avenue des Quatre Vents 44360 Cordemais,,,,,Un club informatique qui donne des cours collectifs ou individuels,50€ pour le reste du public,,,,,,47.290599,-1.877944,2 Avenue des 4 Vents 44360 Cordemais,0.75,housenumber,44045_0165_00002,2,Avenue des 4 Vents,,44360,Cordemais,44; Loire-Atlantique; Pays de la Loire,44045,,,
44360,Bibliothèque de Saint-Etienne de Montluc,3 Rue de la Paix 44360 Saint-étienne-de-Montluc,02 40 86 97 35,bibliotheque.st-etienne-montluc.net,,,,Commune: 7€30 par an ( + 18 ans) Hors commune: 13€40 (+ 18 ans),,,,,,47.275267,-1.781321,3 Rue de la Paix 44360 Saint-Étienne-de-Montluc,0.95,housenumber,44158_1280_00003,3,Rue de la Paix,,44360,Saint-Étienne-de-Montluc,44; Loire-Atlantique; Pays de la Loire,44158,,,
44370,Bibliothèque L'école buissonnière,Square des Mésanges (Varades) 44370 Loireauxence,240983389,http://bibliofil.pays-ancenis.fr/,,,Accès à un point numérique.,gratuit,,,,,,47.389537,-1.027869,Square des Mésanges 44370 Loireauxence,0.79,street,44213_0099,,Square des Mésanges,,44370,Loireauxence,44; Loire-Atlantique; Pays de la Loire,44213,44213,Varades,
44370,Pôle Santé Social de Loire Auxence,182 Rue du Mal Foch (Varades) 44370 Loireauxence,240986394,http://www.loireauxence.fr/,,,Vous trouverez ici de l'aide et de l'accompagnement dans vos démarches administratives.,Gratuit,,,,,,47.385893,-1.032294,182 Rue du Maréchal Foch 44370 Loireauxence,0.74,housenumber,44213_0097_00182,182,Rue du Maréchal Foch,,44370,Loireauxence,44; Loire-Atlantique; Pays de la Loire,44213,44213,Varades,
44380,Médiathèque Jacques Lambert,Avenue de la Mer 44380 Pornichet,251732222,mediatheque.ville-pornichet.com,,,,Gratuit,,,,,,47.26785,-2.3478,Avenue de la Mer 44380 Pornichet,0.95,street,44132_0870,,Avenue de la Mer,,44380,Pornichet,44; Loire-Atlantique; Pays de la Loire,44132,,,
44380,CCAS Pornichet,115 Avenue du Général de Gaulle 44380 Pornichet,240115538,,,,,gratuit,,,,,,47.26294,-2.33982,115 Avenue du Général de Gaulle 44380 Pornichet,0.95,housenumber,44132_0550_00115,115,Avenue du Général de Gaulle,,44380,Pornichet,44; Loire-Atlantique; Pays de la Loire,44132,,,
44390,Bibliothèque de Saffré,Avenue du Château 44390 Saffré,251815662,http://www.cc-nozay-bibliotheques.fr/index/index/id_profil/1,,,,Tarif: -20ans gratuit +20ans:7€  +20ans et hors CCRN : 10€,,,,,,47.501262,-1.578929,Avenue du Château 44390 Saffré,0.94,street,44149_0048,,Avenue du Château,,44390,Saffré,44; Loire-Atlantique; Pays de la Loire,44149,,,
44390,Bibliothèque  de Puceul,1 Route des Gremets 44390 Puceul,02 40 79 28 12,http://www.cc-nozay-bibliotheques.fr/index/index/id_profil/1,,tarif -20ans :gratuittarif+20ans:7?é¼ et 10?é¼habitant hors du CCRN,,,,,,,,47.521916,-1.617678,1 Route des Gremets 44390 Puceul,0.94,housenumber,44138_0027_00001,1,Route des Gremets,,44390,Puceul,44; Loire-Atlantique; Pays de la Loire,44138,,,
44390,,2 BIS Place du Champ de Foire 44390 Nort-sur-Erdre,,,,,,,,,,,,47.43656,-1.500552,2 bis Place du Champ de Foire 44390 Nort-sur-Erdre,0.95,housenumber,44110_0120_00002_bis,2 bis,Place du Champ de Foire,,44390,Nort-sur-Erdre,44; Loire-Atlantique; Pays de la Loire,44110,,,
44390,Médiathèque Nort-sur-Erdre,35 Rue du Général Leclerc 44390 Nort-sur-Erdre,02 40 29 51 90,https://www.biblioth?Îques.cceg.fr,,,Espace de lecture et d'animation comprenant un point d'accès numérique.,gratuit,,,,,,47.43837,-1.499583,35 Rue du Général Leclerc 44390 Nort-sur-Erdre,0.95,housenumber,44110_0300_00035,35,Rue du Général Leclerc,,44390,Nort-sur-Erdre,44; Loire-Atlantique; Pays de la Loire,44110,,,
44400,Centre Information Jeunesse de Rezé,19 Avenue de la Vendée 44400 Rezé,,,,,,,,,,,,47.185012,-1.559797,Avenue de la Vendée 44400 Rezé,0.87,street,44143_3640,,Avenue de la Vendée,,44400,Rezé,44; Loire-Atlantique; Pays de la Loire,44143,,,
44400,Maison de l'emploi Rezé Pont Rousseau,8 Rue Jean Baptiste Vigier 44400 Rezé,,,,,,,,,,,,47.191074,-1.546194,8 Rue Jean Baptiste Vigier 44400 Rezé,0.96,housenumber,44143_1920_00008,8,Rue Jean Baptiste Vigier,,44400,Rezé,44; Loire-Atlantique; Pays de la Loire,44143,,,
44400,,17 Chemin Fontaine Launay 44400 Rezé,,,,,Collecte et vente d'ordinateurs reconditionnés sous Linux,gratuit,,,,,,47.187256,-1.547823,Chemin Fontaine Launay 44400 Rezé,0.88,street,44143_1329,,Chemin Fontaine Launay,,44400,Rezé,44; Loire-Atlantique; Pays de la Loire,44143,,,
44410,Bibliothèque Le Pré aux Livres,14 Rue de la Fontaine 44410 Assérac,240017286,www.asserac.fr,,,,Gratuit,,,,,,47.430692,-2.392121,14 Rue de la Fontaine 44410 Assérac,0.94,housenumber,44006_0320_00014,14,Rue de la Fontaine,,44410,Assérac,44; Loire-Atlantique; Pays de la Loire,44006,,,
44410,Mairie Point Emploi,1 Avenue de la Monneraye 44410 Herbignac,240889001,http://www.herbignac.com/?-Orientation-et-Emploi-,,,,gratuit,,,,,,47.449286,-2.315981,1 Avenue de la Monneraye 44410 Herbignac,0.95,housenumber,44072_xsxqxt_00001,1,Avenue de la Monneraye,,44410,Herbignac,44; Loire-Atlantique; Pays de la Loire,44072,,,
44410,Centre Communal d'Action Sociale (CCAS) d'Herbignac,1 Avenue de la Monneraye 44410 Herbignac,02 40 88 86 94,,,,,,,,,,,47.449286,-2.315981,1 Avenue de la Monneraye 44410 Herbignac,0.95,housenumber,44072_xsxqxt_00001,1,Avenue de la Monneraye,,44410,Herbignac,44; Loire-Atlantique; Pays de la Loire,44072,,,
44410,MSAP,2 Rue de la Brière 44410 Saint-Lyphard,,,,,,,,,,,,47.397759,-2.305512,Rue de la Brière 44410 Saint-Lyphard,0.9,street,44175_0100,,Rue de la Brière,,44410,Saint-Lyphard,44; Loire-Atlantique; Pays de la Loire,44175,,,
44410,,24 Rue Pasteur 44410 Herbignac,,,,,,,,,,,,47.449806,-2.316913,Rue du Prieuré 44410 Herbignac,0.55,street,44072_0340,,Rue du Prieuré,,44410,Herbignac,44; Loire-Atlantique; Pays de la Loire,44072,,,
44410,Relais CAF,2 Rue de la Brière 44410 Saint-Lyphard,,https://www.maisondeservicesaupublic.fr/content/saint-lyphard-bureau-de-poste,,,,gratuit,,,,,,47.397759,-2.305512,Rue de la Brière 44410 Saint-Lyphard,0.9,street,44175_0100,,Rue de la Brière,,44410,Saint-Lyphard,44; Loire-Atlantique; Pays de la Loire,44175,,,
44410,Relaie CAF,1 Avenue de la Monneraye 44410 Herbignac,02 40 88 90 01,http://www.herbignac.com/?Point-d-accueil-numerique-CAF-en,,,,gratuit,,,,,,47.449286,-2.315981,1 Avenue de la Monneraye 44410 Herbignac,0.95,housenumber,44072_xsxqxt_00001,1,Avenue de la Monneraye,,44410,Herbignac,44; Loire-Atlantique; Pays de la Loire,44072,,,
44410,Maison de services au public (bureau de poste) Saint-Lyphard,2 Rue de la Brière 44410 Saint-Lyphard,47.397863,,,,,gratuit,,,,,,47.397759,-2.305512,Rue de la Brière 44410 Saint-Lyphard,0.9,street,44175_0100,,Rue de la Brière,,44410,Saint-Lyphard,44; Loire-Atlantique; Pays de la Loire,44175,,,
44410,Espace Culturel Fran?¯ois Mitterrand,3 Rue de la Fontaine Saint-Jean 44410 Herbignac,251769040,http://www.herbignac.com/?-espace-culturel-,,,,gratuit,,,,,,47.447678,-2.322462,3 Rue de la Fontaine Saint-jean 44410 Herbignac,0.95,housenumber,44072_0080_00003,3,Rue de la Fontaine Saint-jean,,44410,Herbignac,44; Loire-Atlantique; Pays de la Loire,44072,,,
44410,CCAS,16 Rue de la Brière 44410 La Chapelle-des-Marais,240539798,http://www.lachapelledesmarais.fr/action-sociale/le-c-c-a-,Centre Communal d'Action Sociale,,,gratuit,,,,,,47.44666,-2.24291,16 Rue de la Brière 44410 La Chapelle-des-Marais,0.95,housenumber,44030_0120_00016,16,Rue de la Brière,,44410,La Chapelle-des-Marais,44; Loire-Atlantique; Pays de la Loire,44030,,,
44410,Médiathèque Gaston Leroux,Rue de Penlys 44410 La Chapelle-des-Marais,240424200,http://mediatheque.gastonleroux.opac3d.fr,,,,gratuit,,,,,,47.4474,-2.24063,Rue de Penlys 44410 La Chapelle-des-Marais,0.95,street,44030_0680,,Rue de Penlys,,44410,La Chapelle-des-Marais,44; Loire-Atlantique; Pays de la Loire,44030,,,
44420,Office de Tourisme,Place de l'Orée du Bois 44420 Mesquer,970210889,http://www.mesquerquimiac.com/office-de-tourisme,,,,gratuit,,,,,,47.40621,-2.483343,Place de l'Orée du Bois 44420 Mesquer,0.94,street,44097_0060,,Place de l'Orée du Bois,,44420,Mesquer,44; Loire-Atlantique; Pays de la Loire,44097,,,
44420,Bibliotheque Anita Conti,Place du Marche 44420 La Turballe,,www.laturballe.fr/info/bibliotheque_anita_conti,,,,,,,,,,47.348474,-2.493922,Impasse du Chêne 44420 La Turballe,0.57,street,44211_0198,,Impasse du Chêne,,44420,La Turballe,44; Loire-Atlantique; Pays de la Loire,44211,,,
44420,Association des Demandeurs d'Emploi du Pays Blanc,Place du Marche 44420 La Turballe,,,,,,,,,,,,47.348474,-2.493922,Impasse du Chêne 44420 La Turballe,0.57,street,44211_0198,,Impasse du Chêne,,44420,La Turballe,44; Loire-Atlantique; Pays de la Loire,44211,,,
44420,Complexe sportif et Culturel de la Vigne,Rue de Kercabellec 44420 Mesquer,,,,,,gratuit,,,Wifi,,,47.39967,-2.460486,Rue de Kercabellec 44420 Mesquer,0.94,street,44097_0260,,Rue de Kercabellec,,44420,Mesquer,44; Loire-Atlantique; Pays de la Loire,44097,,,
44430,Comme un roman,2 BIS Rue Saint-Vincent 44430 Le Landreau,,http://bibliotheque.le-landreau.fr/vufind/,Espace de lecture et de documentation et bénéficiant d'un équipement numérique,,,ateliers de sensibilisation sur le num??rique,,ouvert à tous,,,,47.203519,-1.306027,2 bis Rue Saint-vincent 44430 Le Landreau,0.94,housenumber,44079_0185_00002_bis,2 bis,Rue Saint-vincent,,44430,Le Landreau,44; Loire-Atlantique; Pays de la Loire,44079,,,
44430,Les Quatres Vents,4 Rue du Jeu de Paume 44430 Le Loroux-Bottereau,240338276,https://www.mediatheque-loroux-bottereau.net,,,Espace de lecture et de documentation ayant un service numérique,gratuit,,,,,,47.238526,-1.349373,4 Rue du Jeu de Paume 44430 Le Loroux-Bottereau,0.95,housenumber,44084_0420_00004,4,Rue du Jeu de Paume,,44430,Le Loroux-Bottereau,44; Loire-Atlantique; Pays de la Loire,44084,,,
44440,Bibliotheque L'orange bleue,Rue des Chênes 44440 Riaillé,240978592,http://bibliofil.pays-ancenis.fr/,,,Accès à un point numérique.,gratuit,,,,,,47.517764,-1.300921,Rue des Chênes 44440 Riaillé,0.94,street,44144_0370,,Rue des Chênes,,44440,Riaillé,44; Loire-Atlantique; Pays de la Loire,44144,,,
44440,Maison des Services au Public du secteur de Riaillé,182 Rue du Cèdre 44440 Riaillé,240973523,https://www.sivom-secteur-riaille.com/,,,Accompagnement dans vos démarches administratives en ligne.,gratuit,,,,,,47.517779,-1.294659,182 Rue du Cèdre 44440 Riaillé,0.94,housenumber,44144_0190_00182,182,Rue du Cèdre,,44440,Riaillé,44; Loire-Atlantique; Pays de la Loire,44144,,,
44440,Maison de Services au Public SIVOM du canton de Riaillé,182 Rue du Cèdre 44440 Riaillé,,,,,,,,,,,,47.517779,-1.294659,182 Rue du Cèdre 44440 Riaillé,0.94,housenumber,44144_0190_00182,182,Rue du Cèdre,,44440,Riaillé,44; Loire-Atlantique; Pays de la Loire,44144,,,
44440,La Maison de services au public du SIVOM de Riaillé (Joué sur Erdre,182 Rue du Cèdre 44440 Riaillé,,,,,,,,,,,,47.517779,-1.294659,182 Rue du Cèdre 44440 Riaillé,0.94,housenumber,44144_0190_00182,182,Rue du Cèdre,,44440,Riaillé,44; Loire-Atlantique; Pays de la Loire,44144,,,
44450,Le Passe Muraille,5 Rue des Heurthauds 44450 Saint-Julien-de-Concelles,240365000,https://www.mediatheque-le-passe-muraille.fr,,,Espace de lecture et de documentation ayant un service num??rique.,gratuit,,,,,,47.252977,-1.386508,5 Rue des Heurthauds 44450 Saint-Julien-de-Concelles,0.95,housenumber,44169_0200_00005,5,Rue des Heurthauds,,44450,Saint-Julien-de-Concelles,44; Loire-Atlantique; Pays de la Loire,44169,,,
44450,Centre socio-culturel loire divatte,2 Route Félix Praud 44450 Saint-Julien-de-Concelles,240368776,http://assoloiredivatte.centres-sociaux.fr/,,,,,,,,,,47.257174,-1.385145,2 Rue Felix Praud 44450 Saint-Julien-de-Concelles,0.84,housenumber,44169_0171_00002,2,Rue Felix Praud,,44450,Saint-Julien-de-Concelles,44; Loire-Atlantique; Pays de la Loire,44169,,,
44450,Médiathèque Divatte-sur-Loire,LE CALVAIRE (Barbechat) 44450 Divatte-sur-Loire,02 40 33 37 93,http://www.mediatheque-divatte-sur-loire.fr/,,,,gratuit,,,,,,47.275057,-1.281659,Le Calvaire 44450 Divatte-sur-Loire,0.74,street,44029_7zwxdz,,Le Calvaire,,44450,Divatte-sur-Loire,44; Loire-Atlantique; Pays de la Loire,44029,44008,Barbechat,
44460,Médiathèque Saint Nicolas de Redon,2 Rue de Tabago 44460 Saint-Nicolas-de-Redon,47.644166,bénéficiaires minima sociaux et demandeurs d'emploi,,,Espace de lecture et d'animation comprenant un point d'accès numérique.,14€ annuel / gratuit : -18 ans,,,,,,47.644166,-2.07093,2 Rue de Tabago 44460 Saint-Nicolas-de-Redon,0.94,housenumber,44185_0740_00002,2,Rue de Tabago,,44460,Saint-Nicolas-de-Redon,44; Loire-Atlantique; Pays de la Loire,44185,,,
44460,Médiathèque  d'Avessac,Rue de Plessé 44460 Avessac,47.652412,,,,Espace de lecture et d'animation ponctuelle possédant un espace d'accès numérique.,14€ annuel / gratuit : -18 ans,,bénéficiaires minima sociaux et demandeurs d'emploi,,,,47.65382,-1.988367,Rue de Plessé 44460 Avessac,0.94,street,44007_0166,,Rue de Plessé,,44460,Avessac,44; Loire-Atlantique; Pays de la Loire,44007,,,
44480,Médiathèque Jules Verne,13 Rue René Laennec 44480 Donges,240910131,http://mediatheque.ville-donges.fr,,,,Gratuit,,,,,,47.31911,-2.07475,13 Rue René Laënnec 44480 Donges,0.95,housenumber,44052_0600_00013,13,Rue René Laënnec,,44480,Donges,44; Loire-Atlantique; Pays de la Loire,44052,,,
44490,CCAS Le Croisic,3 Rue de la Duchesse Anne 44490 Le Croisic,228567900,https://www.loire-atlantique.fr/jcms/classement-des-contenus/lieux/par-types-de-lieu/service/centres-communaux-d-action-sociale-ccas/centre-communal-d-action-sociale-ccas-du-croisic-fr-t1_36195,,,,Gratuit,,,,,,47.294262,-2.513663,3 Rue de la Duchesse Anne 44490 Le Croisic,0.95,housenumber,44049_u8e1x3_00003,3,Rue de la Duchesse Anne,,44490,Le Croisic,44; Loire-Atlantique; Pays de la Loire,44049,,,
44490,Office de Tourisme,6 Rue du Pilori 44490 Le Croisic,240230070,http:/www.tourisme-lecroisic.fr/fr,,,,gratuit,,,,,,47.2938,-2.510971,6 Rue du Pilori 44490 Le Croisic,0.95,housenumber,44049_8nhoyi_00006,6,Rue du Pilori,,44490,Le Croisic,44; Loire-Atlantique; Pays de la Loire,44049,,,
44500,Pôle emploi,3 BIS Avenue des Noelles 44500 La Baule-Escoublac,972723949,https://www.pole-emploi.fr/annuaire/la-baule-guerande-44016,,,,Gratuit,,,,,,47.291456,-2.394937,3 bis Avenue des Noëlles 44500 La Baule-Escoublac,0.95,housenumber,44055_2625_00003_bis,3 bis,Avenue des Noëlles,,44500,La Baule-Escoublac,44; Loire-Atlantique; Pays de la Loire,44055,,,
44500,Office de Tourisme La Baule,8 Place de la Victoire 44500 La Baule-Escoublac,240243444,http://www.labaule-guerande.com,,,,Gratuit,,,,,,47.287084,-2.391093,Place de la Victoire 44500 La Baule-Escoublac,0.91,street,44055_3710,,Place de la Victoire,,44500,La Baule-Escoublac,44; Loire-Atlantique; Pays de la Loire,44055,,,
44500,Médiathèque  Henri Queffelec,181 Avenue du Maréchal de Lattre de Tassigny 44500 La Baule-Escoublac,240241881,http://www.labaule.fr/bibliotheque-henri-queffelec,,,,gratuit,,,,,,47.284344,-2.402612,181 Avenue du Maréchal de Lattre de Tassigny 44500 La Baule-Escoublac,0.95,housenumber,44055_2290_00181,181,Avenue du Maréchal de Lattre de Tassigny,,44500,La Baule-Escoublac,44; Loire-Atlantique; Pays de la Loire,44055,,,
44510,Espace jeunes du Pouliguen,4 Rue Paul Lesage 44510 Le Pouliguen,615209605,https://www.annuaire-administration.com/cij/point-information-jeunesse-du-pouliguen-cij-44135-01.html,,,,cotisation annuelle : 15€ pour les habitants / 20€ hors-commune,,Espace jeunes à destination des 16-25 ans. Accès libre.,,,,47.275755,-2.431108,4 Rue Paul Lesage 44510 Le Pouliguen,0.95,housenumber,44135_0894_00004,4,Rue Paul Lesage,,44510,Le Pouliguen,44; Loire-Atlantique; Pays de la Loire,44135,,,
44520,Blibliothèque Issé,2 Rue du Chêne Piraud 44520 Issé,240551756,http://www.cc-castelbriantais.fr/reseau-des-bibliotheques,,,Lieu de lecture et d’activités,Gratuit,,,,,,47.622337,-1.452621,2 Rue du Chêne Piraud 44520 Issé,0.94,housenumber,44075_0341_00002,2,Rue du Chêne Piraud,,44520,Issé,44; Loire-Atlantique; Pays de la Loire,44075,,,
44520,Bibliothèque La Meilleraye-de-Bretagne,72 Rue des Frères Temple 44520 La Meilleraye-de-Bretagne,228504478,http://www.cc-castelbriantais.fr/reseau-des-bibliotheques,Lieu de lecture et d'activités.,,,gratuit,,,,,,47.559804,-1.401778,72 Rue des Fréres Templé 44520 La Meilleraye-de-Bretagne,0.94,housenumber,44095_0065_00072,72,Rue des Fréres Templé,,44520,La Meilleraye-de-Bretagne,44; Loire-Atlantique; Pays de la Loire,44095,,,
44521,Bibliothèque La Forge aux livres,Rue Saint-Jéréme 44521 Couffé,240963728,http://bibliofil.pays-ancenis.fr/,,,Il s’agit d’une bibliothèque. Vous pouvez venir lire sur place ou emprunter des documents. Vous avez également un accès à un point numérique.,Gratuit,,,,,,47.391734,-1.291258,Rue Saint Jérôme 44521 Couffé,0.82,street,44048_0095,,Rue Saint Jérôme,,44521,Couffé,44; Loire-Atlantique; Pays de la Loire,44048,,,
44521,Bibliothèque Moisdon-la-rivière,Place de l'église 44520 Moisdon-la-Rivi?Îre,02 40 07 59 88,http://www.cc-castelbriantais.fr/reseau-des-bibliotheques,,,Lieu de lecture et d'activités.,gratuit,,,,,,47.621826,-1.372513,Place de l'Eglise 44520 Moisdon-la-Rivière,0.84,street,44099_0080,,Place de l'Eglise,,44520,Moisdon-la-Rivière,44; Loire-Atlantique; Pays de la Loire,44099,,,
44522,Bibliothèque Les Milles et Une Pages,Boulevard des Arts/Rue des Arts 44522 Mésanger,240968687,http://bibliofil.pays-ancenis.fr/,,,Accès à un point numérique.,gratuit,,,,,,47.433596,-1.232391,Boulevard des Arts 44522 Mésanger,0.68,street,44096_0023,,Boulevard des Arts,,44522,Mésanger,44; Loire-Atlantique; Pays de la Loire,44096,,,
44530,Mission locale Saint-Gildas-des-bois,17 Rue des Forges 44530 Saint-Gildas-des-Bois,240015584,http://www.cc-paysdepontchateau.fr/contacts/mission-locale-rurale-du-sillon,,,,Gratuit,,,,,,47.513137,-2.039505,17 Rue des Forges 44530 Saint-Gildas-des-Bois,0.94,housenumber,44161_0108_00017,17,Rue des Forges,,44530,Saint-Gildas-des-Bois,44; Loire-Atlantique; Pays de la Loire,44161,,,
44530,Relais CAF,4 Rue de la Roche Buttée 44530 Guenrouet,,https://www.maisondeservicesaupublic.fr/content/guenrouet-bureau-de-poste,,,,Gratuit,,,,,,47.519266,-1.954992,4 Rue de la Roche Buttée 44530 Guenrouet,0.94,housenumber,44068_0028_00004,4,Rue de la Roche Buttée,,44530,Guenrouet,44; Loire-Atlantique; Pays de la Loire,44068,,,
44530,Médiathèque de Guenrouèt,12 Rue André Caux 44530 Guenrouet,240878006,http://www.guenrouet.fr/la-bibliotheque-intercommunale,,,,Gratuit,,,,,,47.51975,-1.955245,12 Rue André Caux 44530 Guenrouet,0.94,housenumber,44068_0014_00012,12,Rue André Caux,,44530,Guenrouet,44; Loire-Atlantique; Pays de la Loire,44068,,,
44530,Médiathèque de Drefféac,1 Rue des Saules 44530 Drefféac,240176054,www.cc-paysdepontchateau.fr/contacts/bibliotheque-de-dreffeac-2,,,,gratuit,,,,,,47.474681,-2.061063,1 Rue des Saules 44530 Drefféac,0.94,housenumber,44053_0122_00001,1,Rue des Saules,,44530,Drefféac,44; Loire-Atlantique; Pays de la Loire,44053,,,
44530,Maison de service au public,Rue de la Roche Buttée 44530 Guenrouet,,,,,,gratuit,,,,,,47.519588,-1.954758,Rue de la Roche Buttée 44530 Guenrouet,0.94,street,44068_0028,,Rue de la Roche Buttée,,44530,Guenrouet,44; Loire-Atlantique; Pays de la Loire,44068,,,
44530,Bibliothèque  de Saint Gildas des Bois,17 Rue des Forges 44530 Saint-Gildas-des-Bois,02 40 66 74 64,paysdepontchateau.fr/contacts/bibliotheque-de-st-gildas-des-bois,,,,gratuit,,,,,,47.513137,-2.039505,17 Rue des Forges 44530 Saint-Gildas-des-Bois,0.94,housenumber,44161_0108_00017,17,Rue des Forges,,44530,Saint-Gildas-des-Bois,44; Loire-Atlantique; Pays de la Loire,44161,,,
44530,Médiathèque de Sévérac,2 Rue de la Gagnerie 44530 Sévérac,240887323,http://www.cc-paysdepontchateau.fr/contacts/bibliotheque-de-severac-2/,,,,Abonnement 11€ par an,,,,,,47.54841,-2.077494,2 Rue de la Gagnerie 44530 Sévérac,0.94,housenumber,44196_0035_00002,2,Rue de la Gagnerie,,44530,Sévérac,44; Loire-Atlantique; Pays de la Loire,44196,,,
44530,MSAP,4 Rue de la Roche Buttée 44530 Guenrouet,,,,,,,,,,,,47.519266,-1.954992,4 Rue de la Roche Buttée 44530 Guenrouet,0.94,housenumber,44068_0028_00004,4,Rue de la Roche Buttée,,44530,Guenrouet,44; Loire-Atlantique; Pays de la Loire,44068,,,
44540,Bibliotheque Les mots passants,18 Avenue Charles Henri de Cosse Brissac (Saint-Mars-la-Jaille) 44540 Vallons-de-l'Erdre,240973726,http://bibliofil.pays-ancenis.fr/,,,Accès à un point numérique.,gratuit,,,,,,47.524988,-1.184543,18 Av C Henri de Cosse Brissac 44540 Vallons-de-l'Erdre,0.58,housenumber,44180_0131_00018,18,Av C Henri de Cosse Brissac,,44540,Vallons-de-l'Erdre,44; Loire-Atlantique; Pays de la Loire,44180,44180,Saint-Mars-la-Jaille,
44550,Médiathèque Colette,Rue Jean Macé 44550 Saint-Malo-de-Guersac,240911021,http://mediatheque-colette.opac3d.fr/search.php?action=Accueil,,,,gratuit,,,,,,47.35232,-2.17958,Rue Jean Macé 44550 Saint-Malo-de-Guersac,0.94,street,44176_0330,,Rue Jean Macé,,44550,Saint-Malo-de-Guersac,44; Loire-Atlantique; Pays de la Loire,44176,,,
44550,START'AIR Jeunes,3 Rue Pablo Neruda 44550 Montoir-de-Bretagne,240451192,http://www.startair.fr/montoir-de-bretagne,,,,gratuit,,,,,,47.33087,-2.15316,3 Rue Pablo Néruda 44550 Montoir-de-Bretagne,0.95,housenumber,44103_0825_00003,3,Rue Pablo Néruda,,44550,Montoir-de-Bretagne,44; Loire-Atlantique; Pays de la Loire,44103,,,
44550,Médiathèque  municipale Barbara,7 Rue de Berry 44550 Montoir-de-Bretagne,240701151,http://www.mediatheque-montoir.fr,,,,gratuit,,,,,,47.32946,-2.15026,7 Rue du Berry 44550 Montoir-de-Bretagne,0.86,housenumber,44103_0160_00007,7,Rue du Berry,,44550,Montoir-de-Bretagne,44; Loire-Atlantique; Pays de la Loire,44103,,,
44550,CCAS Montoir-de Bretagne,65 Rue Jean Jaurès 44550 Montoir-de-Bretagne,240454508,http://www.montoirdebretagne.fr/Vivre-ensemble/L-action-sociale,Centre Communale d'Action Sociale,,,gratuit,,,,,,47.32701,-2.15032,65 Rue Jean Jaurès 44550 Montoir-de-Bretagne,0.95,housenumber,44103_0580_00065,65,Rue Jean Jaurès,,44550,Montoir-de-Bretagne,44; Loire-Atlantique; Pays de la Loire,44103,,,
44550,Start'Air Jeunes Saint-Malo-de-Guersac,52 Rue Aristide Briand 44550 Saint-Malo-de-Guersac,240539612,http://www.startair.fr/saint-malo-de-guersac,,,,Habitant de Saint-Malo-de-Guersac : 7€ par an,,,,,,47.35306,-2.17507,52 Rue Aristide Briand 44550 Saint-Malo-de-Guersac,0.94,housenumber,44176_0040_00052,52,Rue Aristide Briand,,44550,Saint-Malo-de-Guersac,44; Loire-Atlantique; Pays de la Loire,44176,,,
44560,Espace ACCES CYB,33 Boulevard Dumesnildot 44560 Paimboeuf,,,,,,,,,,,,47.286904,-2.031379,33 Boulevard Dumesnildot 44560 Paimbœuf,0.94,housenumber,44116_0150_00033,33,Boulevard Dumesnildot,,44560,Paimbœuf,44; Loire-Atlantique; Pays de la Loire,44116,,,
44570,Médiathèque  Municipale de Trignac,Rue Émile Combes 44570 Trignac,240903266,http://www.mairie-trignac.fr/contacts/mediatheque-municipale,,,,gratuit,,,,,,47.32064,-2.18875,Rue Emile Combes 44570 Trignac,0.95,street,44210_0170,,Rue Emile Combes,,44570,Trignac,44; Loire-Atlantique; Pays de la Loire,44210,,,
44570,Cybercentre Trignac,9 Rue Jean Jaurès 44570 Trignac,,,,,Cours Collectif et des Formation,12€ l'atelier + 8 € cotisation ATLC,,,Vidéoprojecteur,,,47.32047,-2.18731,9 Rue Jean Jaurès 44570 Trignac,0.95,housenumber,44210_0300_00009,9,Rue Jean Jaurès,,44570,Trignac,44; Loire-Atlantique; Pays de la Loire,44210,,,
44570,Pôle emploi,7 Avenue Barbara 44570 Trignac,09 72 72 39 49,https://www.pole-emploi.fr/annuaire/trignac-44194,,,,gratuit,,,,,,47.29426,-2.20624,Avenue Barbara 44570 Trignac,0.89,street,44210_0039,,Avenue Barbara,,44570,Trignac,44; Loire-Atlantique; Pays de la Loire,44210,,,
44570,Start'Air Jeunes,Allée des Prunus 44570 Trignac,,,,,,,,,,,,47.30142,-2.20104,Allée des Prunus 44570 Trignac,0.95,street,44210_0543,,Allée des Prunus,,44570,Trignac,44; Loire-Atlantique; Pays de la Loire,44210,,,
44570,cybercentre reseau cyber-base-trignac,9 Rue Jean Jaurès 44570 Trignac,+33 2 40 00 65 28,http://cybercentre-trignac/,,,,,,,,,,47.32047,-2.18731,9 Rue Jean Jaurès 44570 Trignac,0.95,housenumber,44210_0300_00009,9,Rue Jean Jaurès,,44570,Trignac,44; Loire-Atlantique; Pays de la Loire,44210,,,
44580,MSAP,15 Rue de la Taillée (Bourgneuf-en-Retz) 44580 Villeneuve-en-Retz,,,,,,,,,,,,47.042453,-1.954145,15 Rue de la Taillée 44580 Villeneuve-en-Retz,0.68,housenumber,44021_0480_00015,15,Rue de la Taillée,,44580,Villeneuve-en-Retz,44; Loire-Atlantique; Pays de la Loire,44021,44021,Bourgneuf-en-Retz,
44590,,17 Rue de la Mairie 44590 Saint-Vincent-des-Landes,,,,,,Gratuit,,,,,,47.655409,-1.497669,17 Rue de la Mairie 44590 Saint-Vincent-des-Landes,0.94,housenumber,44193_0278_00017,17,Rue de la Mairie,,44590,Saint-Vincent-des-Landes,44; Loire-Atlantique; Pays de la Loire,44193,,,
44590,Maison de l'emploi Derval,14 Rue de la Garlais 44590 Derval,240818226,http://www.mde-chateaubriant-derval.fr/site-de-derval/,,,,Gratuit,,,,,,47.668489,-1.670259,14 Rue de la Garlais 44590 Derval,0.94,housenumber,44051_0945_00014,14,Rue de la Garlais,,44590,Derval,44; Loire-Atlantique; Pays de la Loire,44051,,,
44590,,1 Rue de la Gare 44590 Lusanger,,http://www.biblios-ccsd.net/,,,1 postes informatiques internet et outils bureautiques (excel,,,,,,,47.679817,-1.587616,1 Rue de la Gare 44590 Lusanger,0.94,housenumber,44086_0270_00001,1,Rue de la Gare,,44590,Lusanger,44; Loire-Atlantique; Pays de la Loire,44086,,,
44590,Médiathèque de Mouais,3 Place de l'église 44590 Mouais,240076734,http://www.biblios-ccsd.net/,,,,,,,,,,47.696335,-1.644657,3 Place de l'Eglise 44590 Mouais,0.93,housenumber,44105_0015_00003,3,Place de l'Eglise,,44590,Mouais,44; Loire-Atlantique; Pays de la Loire,44105,,,
44590,,1 Place du Breil 44590 Sion-les-Mines,,,,,,,,,,,,47.736718,-1.590792,1 Place du Breil 44590 Sion-les-Mines,0.94,housenumber,44197_0130_00001,1,Place du Breil,,44590,Sion-les-Mines,44; Loire-Atlantique; Pays de la Loire,44197,,,
44590,Médiathèque de de Derval,15 Rue de la Tour Saint-Clair 44590 Derval,240280396,http://www.biblios-ccsd.net,,,,gratuit,,,,,,47.667697,-1.6699,15 Rue de la Tour Saint - Clair 44590 Derval,0.94,housenumber,44051_0650_00015,15,Rue de la Tour Saint - Clair,,44590,Derval,44; Loire-Atlantique; Pays de la Loire,44051,,,
44590,Axetic,45 Rue de Châteaubriant 44590 Sion-les-Mines,,,,,création de site web,,,,,,,47.734198,-1.588314,45 Rue de Châteaubriant 44590 Sion-les-Mines,0.94,housenumber,44197_0190_00045,45,Rue de Châteaubriant,,44590,Sion-les-Mines,44; Loire-Atlantique; Pays de la Loire,44197,,,
44590,Cyber-base emploi,14 Rue de la Garlais 44590 Derval, 02 40 07 25 81,http://derval.cyber-base.org/,Communauté de communes du secteur de Derval,mailto:cybercentre@cc-derval.fr,Thématiques d'atelier: Animations jeunesseAudio/photo/vidéoBureautiqueInformations parentsInformatiqueInternetRecherche d’emploi,Profil(s): Enfants Jeunes Etudiants Adultes Parents Seniors Demandeurs d’emploi Tarifs: Un abonnement annuel est nécessaire pour profiter des activités de l’espace avec une distinction géographique selon la résidence sur le territoire de la Communauté de,,Tout public,Matériel: Imprimante couleur,,,47.668489,-1.670259,14 Rue de la Garlais 44590 Derval,0.94,housenumber,44051_0945_00014,14,Rue de la Garlais,,44590,Derval,44; Loire-Atlantique; Pays de la Loire,44051,,,
44590,,15 Rue de la Tour Saint-Clair 44590 Derval,,,,,,,,,,,,47.667697,-1.6699,15 Rue de la Tour Saint - Clair 44590 Derval,0.94,housenumber,44051_0650_00015,15,Rue de la Tour Saint - Clair,,44590,Derval,44; Loire-Atlantique; Pays de la Loire,44051,,,
44600,Ecole d'Arts - Ateliers numériques,24 Avenue Léon Blum 44600 Saint-Nazaire,47272408,,,,Création numérique Utilisation de logiciel payant (photoshop),Ateliers: 30€ pour les habitants20€  pour les -25ans 60€ hors-commune 40€ pour -25ans hors-communeaccès à l'ordinateur et libre et gratuit,,,imprimante 3D,,,47.27261,-2.21196,24 Avenue Léon Blum 44600 Saint-Nazaire,0.96,housenumber,44184_3740_00024,24,Avenue Léon Blum,,44600,Saint-Nazaire,44; Loire-Atlantique; Pays de la Loire,44184,,,
44600,Médiathèque Anne-Frank,51 Boulevard émile Broodcoorens 44600 Saint-Nazaire,,,,,Ateliers numériques  Jeux-vidéos,Gratuit,,,,,,47.26093,-2.25677,51 Boulevard Emile Broodcoorens 44600 Saint-Nazaire,0.96,housenumber,44184_1756_00051,51,Boulevard Emile Broodcoorens,,44600,Saint-Nazaire,44; Loire-Atlantique; Pays de la Loire,44184,,,
44600,Espace civique Jacques Dubé,1 BIS Rue des Ajoncs 44600 Saint-Nazaire,228559973,,,,,Gratuit,,,,,,47.26761,-2.24979,1 bis Rue des Ajoncs 44600 Saint-Nazaire,0.96,housenumber,44184_0052_00001_bis,1 bis,Rue des Ajoncs,,44600,Saint-Nazaire,44; Loire-Atlantique; Pays de la Loire,44184,,,
44600,Espace Multimédia Léo Lagrange,1 BIS Rue des Ajoncs 44600 Saint-Nazaire,47267608,,,ANTS,,Gratuit pour les Nazairiens Payant hors commune : 15€,,,,,,47.26761,-2.24979,1 bis Rue des Ajoncs 44600 Saint-Nazaire,0.96,housenumber,44184_0052_00001_bis,1 bis,Rue des Ajoncs,,44600,Saint-Nazaire,44; Loire-Atlantique; Pays de la Loire,44184,,,
44600,Maison de quartier La Bouletterie,29 Rue des Frènes 44600 Saint-Nazaire,240703522,http://www.fmq-saintnazaire.fr/bienvenue/index.php/les-maisons-de-quartier/la-bouletterie,,,,gratuit,,,,,,47.26058,-2.26048,29 Rue des Frênes 44600 Saint-Nazaire,0.96,housenumber,44184_2326_00029,29,Rue des Frênes,,44600,Saint-Nazaire,44; Loire-Atlantique; Pays de la Loire,44184,,,
44600,Pôle emploi,10 Boulevard de l'Université 44600 Saint-Nazaire,09 72 72 39 49,https://www.pole-emploi.fr/annuaire/st-nazaire-44021,,,,gratuit,,,,,,47.25311,-2.26193,10 Boulevard de l'Université 44600 Saint-Nazaire,0.96,housenumber,44184_5763_00010,10,Boulevard de l'Université,,44600,Saint-Nazaire,44; Loire-Atlantique; Pays de la Loire,44184,,,
44600,Maison de quartier de l'Immaculée- Beauregard,Route du Point du Jour 44600 Saint-Nazaire,,http:// www.fmq-saintnazaire.fr/bienvenue/index.php/les-maisons-de-quartier/immaculee-beauregardr,,,,sur Rendez-vous.,,,,,,47.29064,-2.25999,Route du Point du Jour 44600 Saint-Nazaire,0.96,street,44184_4991,,Route du Point du Jour,,44600,Saint-Nazaire,44; Loire-Atlantique; Pays de la Loire,44184,,,
44600,Maison de quartier de Méan- Penhoë,1 Rue Émile Combes 44600 Saint-Nazaire,240660450,http:// www.fmq-saintnazaire.fr/bienvenue/index.php/les-maisons-de-quartier/mean-penhoet,,gratuit,,,,,,,,47.29627,-2.18909,1 Rue Emile Combes 44600 Saint-Nazaire,0.96,housenumber,44184_1760_00001,1,Rue Emile Combes,,44600,Saint-Nazaire,44; Loire-Atlantique; Pays de la Loire,44184,,,
44600,Médiathèque  Etienne Caux,6 Rue Auguste Baptiste Léchöet 44600 Saint-Nazaire,,http://www.mediatheque.mairie-saintnazaire.fr,,,Accompagnement individuel (sur rendez-vous),,,,,,,47.27944,-2.21752,6 Rue Auguste Baptiste Lechat 44600 Saint-Nazaire,0.87,housenumber,44184_0376_00006,6,Rue Auguste Baptiste Lechat,,44600,Saint-Nazaire,44; Loire-Atlantique; Pays de la Loire,44184,,,
44600,Maison de quartier La Chesnaie,1 BIS Rue des Ajoncs 44600 Saint-Nazaire,228559990,http://www.fmq-saintnazaire.fr/bienvenue/index.php/les-maisons-de-quartier/la-chesnaie,,,,gratuit,,,,,,47.26761,-2.24979,1 bis Rue des Ajoncs 44600 Saint-Nazaire,0.96,housenumber,44184_0052_00001_bis,1 bis,Rue des Ajoncs,,44600,Saint-Nazaire,44; Loire-Atlantique; Pays de la Loire,44184,,,
44600,,48 Rue Edgar Degas 44600 Saint-Nazaire,,,,,Des ateliers collectifs.,gratuit,,,,,,47.29004,-2.21736,Rue Edgar Degas 44600 Saint-Nazaire,0.88,street,44184_1707,,Rue Edgar Degas,,44600,Saint-Nazaire,44; Loire-Atlantique; Pays de la Loire,44184,,,
44600,C.C.A.S Centre Communal Action Sociale,37 Rue Pierre Mendès France 44600 Saint-Nazaire,240171999,https://www.loire-atlantique.fr/jcms/classement-des-contenus/par-territoire/communaute-d-agglomeration-de-la-region-nazairienne-et-de-l-estuaire/centre-communal-d-action-sociale-ccas-de-saint-nazaire-fr-t1_35938,,,,Gratuit,,,,,,47.27251,-2.21773,37 Rue Pierre Mendès France 44600 Saint-Nazaire,0.96,housenumber,44184_4944_00037,37,Rue Pierre Mendès France,,44600,Saint-Nazaire,44; Loire-Atlantique; Pays de la Loire,44184,,,
44600,Maison de quartier d'Avalix,3 Rue du Docteur Albert Calmette 44600 Saint-Nazaire,,,,,,adultes : 7€ enfants et jeunes jusqu'à 25 ans : 4€ familles : 11€ associations : 30€,,,5 ordinateur,,,47.2734,-2.23978,3 Rue du Docteur Albert Calmette 44600 Saint-Nazaire,0.96,housenumber,44184_5175_00003,3,Rue du Docteur Albert Calmette,,44600,Saint-Nazaire,44; Loire-Atlantique; Pays de la Loire,44184,,,
44600,Relais CAF,2 Place Pierre Semard 44600 Saint-Nazaire,0 810 25 44 10,https://www.loire-atlantique.fr/jcms/classement-des-contenus/par-territoire/communaute-d-agglomeration-de-la-region-nazairienne-et-de-l-estuaire/caf-antenne-de-saint-nazaire-fr-p1_638486,,,,gratuit,,,,,,47.285,-2.21104,Place Pierre Sémard 44600 Saint-Nazaire,0.91,street,44184_4946,,Place Pierre Sémard,,44600,Saint-Nazaire,44; Loire-Atlantique; Pays de la Loire,44184,,,
44600,Mission Locale de l'Agglomération Nazairienne,215 Boulevard du Docteur René Laennec 44600 Saint-Nazaire,240225030,https://www.facebook.com/missionlocaleagglomerationnazairienne,,,,gratuit,,,,,,47.27275,-2.23727,215 Boulevard du Docteur René Laënnec 44600 Saint-Nazaire,0.96,housenumber,44184_1612_00215,215,Boulevard du Docteur René Laënnec,,44600,Saint-Nazaire,44; Loire-Atlantique; Pays de la Loire,44184,,,
44600,Maison de quartier Kerl??d??,70 Rue Ferdinand Buisson 44600 Saint-Nazaire,240535000,http:// www.fmq-saintnazaire.fr/bienvenue/index.php/les-maisons-de-quartier/kerlede,,,,gratuit,,,,,,47.25712,-2.23455,70 Rue Ferdinand Buisson 44600 Saint-Nazaire,0.96,housenumber,44184_1950_00070,70,Rue Ferdinand Buisson,,44600,Saint-Nazaire,44; Loire-Atlantique; Pays de la Loire,44184,,,
44600,,46 Rue d'Anjou 44600 Saint-Nazaire,,,,,Un lieu d'accompagnement de projet mais aussi d'information,Abonnement 2€ par an,,,,,,47.27638,-2.21013,46 Rue d'Anjou 44600 Saint-Nazaire,0.96,housenumber,44184_0220_00046,46,Rue d'Anjou,,44600,Saint-Nazaire,44; Loire-Atlantique; Pays de la Loire,44184,,,
44600,MSAP,10 Rue du Sous Préfet Barre 49600 Beaupréau-en-Mauges,,,,,,,,,,,,47.20339,-0.993564,10 Rue du sous Préfet Barré 49600 Beaupréau-en-Mauges,0.95,housenumber,49023_0116_00010,10,Rue du sous Préfet Barré,,49600,Beaupréau-en-Mauges,49; Maine-et-Loire; Pays de la Loire,49023,49023,Beaupréau,
44600,Centre Information Jeunesse,25 Boulevard Victor Hugo 44600 Saint-Nazaire,,,,,,,,,,,,47.27939,-2.21688,25 Boulevard Victor Hugo 44600 Saint-Nazaire,0.96,housenumber,44184_5840_00025,25,Boulevard Victor Hugo,,44600,Saint-Nazaire,44; Loire-Atlantique; Pays de la Loire,44184,,,
44600,Ecole municipale d' arts plastiques,24 Avenue Léon Blum 44600 Saint-Nazaire,,,,,,,,,,,,47.27261,-2.21196,24 Avenue Léon Blum 44600 Saint-Nazaire,0.96,housenumber,44184_3740_00024,24,Avenue Léon Blum,,44600,Saint-Nazaire,44; Loire-Atlantique; Pays de la Loire,44184,,,
44610,MAIRIE D'INDRE,Avenue de la Loire 44610 Indre,+33 2 40 85 45 88,http://www.indre44.fr/,,,,,,,,,,47.197975,-1.663759,Avenue de la Loire 44610 Indre,0.94,street,44074_0815,,Avenue de la Loire,,44610,Indre,44; Loire-Atlantique; Pays de la Loire,44074,,,
44610,Le Tiers Lieu - ERN,2 Rue du Stade 44610 Indre,,,,,,,,,,,,47.200686,-1.672493,2 Rue du Stade 44610 Indre,0.94,housenumber,44074_1319_00002,2,Rue du Stade,,44610,Indre,44; Loire-Atlantique; Pays de la Loire,44074,,,
44630,Médiathèque du Plessé,3 Espace des 3 Lieux 44630 Plessé,,,,,,14€ annuel / gratuit : -18 ans,,bénéficiaires minima sociaux et demandeurs d'emploi,,,,47.542642,-1.885773,3 Espace des 3 Lieux 44630 Plessé,0.95,housenumber,44128_0253_00003,3,Espace des 3 Lieux,,44630,Plessé,44; Loire-Atlantique; Pays de la Loire,44128,,,
44650,Bibliothèque de Legé,37 Rue de la Chaussée 44650 Legé,228216220,http://bibliotheque-lege.opac3d.fr/search.php?action=Accueil,,,,gratuit,,,,,,46.887002,-1.594156,37 Rue de la Chaussée 44650 Legé,0.95,housenumber,44081_0280_00037,37,Rue de la Chaussée,,44650,Legé,44; Loire-Atlantique; Pays de la Loire,44081,,,
44650,Bibliothèque de Corcoué-sur-Logne,5 Place du Marche 44650 Corcoué-sur-Logne,240058728,http://laplaceauxlivres.opac3d.fr,,,,gratuit,,,,,,46.963754,-1.582216,5 Place du Marché 44650 Corcoué-sur-Logne,0.94,housenumber,44156_0153_00005,5,Place du Marché,,44650,Corcoué-sur-Logne,44; Loire-Atlantique; Pays de la Loire,44156,,,
44660,Bibliotheque de Rougé,1 Rue du Vieux Rouge 44660 Rougé,,http://castelbriantais.e-sezhame.fr/node/content/nid/14408,,,,Gratuite pour les résidents du territoire,,,,,,47.783767,-1.448952,1 Route de Rouge 44660 Rougé,0.55,housenumber,44146_0383_00001,1,Route de Rouge,,44660,Rougé,44; Loire-Atlantique; Pays de la Loire,44146,,,
44660,Bibliotheque de Ruffigné,Rue des Jonquilles 44660 Ruffigné,02 28 04 02 71,http://castelbriantais.e-sezhame.fr/node/content/nid/14409,,,,,,,,,,47.756997,-1.493903,Rue des Jonquilles 44660 Ruffigné,0.94,street,44148_0040,,Rue des Jonquilles,,44660,Ruffigné,44; Loire-Atlantique; Pays de la Loire,44148,,,
44660,Bibliothèque de Fercé,9 Rue de la Mairie 44660 Fercé,240287553,https://castelbriantais.e-sezhame.fr/node/content/nid/14366,,,,,,,,,,47.795597,-1.415937,9 Rue de la Mairie 44660 Fercé,0.94,housenumber,44058_0150_00009,9,Rue de la Mairie,,44660,Fercé,44; Loire-Atlantique; Pays de la Loire,44058,,,
44660,Bibliotheque de Soulvache,2 Rue de la Brutz 44660 Soulvache,240077615,http://www.cc-castelbriantais.fr/reseau-des-bibliotheques,,,,,,,,,,47.829179,-1.474306,2 Rue de la Brutz 44660 Soulvache,0.93,housenumber,44200_0060_00002,2,Rue de la Brutz,,44660,Soulvache,44; Loire-Atlantique; Pays de la Loire,44200,,,
44670,Blibliothèque Saint-Julien-de-Vouvantes,39 Rue de la Libération 44670 Saint-Julien-de-Vouvantes,240072476,http://www.cc-castelbriantais.fr/reseau-des-bibliotheques,,,Lieu de lecture et d’activités,Gratuit,,,,,,47.641817,-1.240131,39 Rue de la Libération 44670 Saint-Julien-de-Vouvantes,0.94,housenumber,44170_0500_00039,39,Rue de la Libération,,44670,Saint-Julien-de-Vouvantes,44; Loire-Atlantique; Pays de la Loire,44170,,,
44670,Relais Accueil Proximité Petit auverné,7 Rue Sophie Trébuchet 44670 Petit-Auverné,240555932,http://www.rap-relais-accueil-proximite.fr/,Accompagnement dans les d??marches administratives sur RDV. Stage de formation possible : 1 stage d?ÇÔinitiation et 1 stage de perfectionnement (selon les demandes des adh??rents).,adh??sion participative,,,,,,,,47.609159,-1.29027,7 Rue Sophie Trébuchet 44670 Petit-Auverné,0.93,housenumber,44121_0160_00007,7,Rue Sophie Trébuchet,,44670,Petit-Auverné,44; Loire-Atlantique; Pays de la Loire,44121,,,
44670,Bibliothèque  Juigné-des-Moutiers,15 Chemin des écoliers 44670 Juigné-des-Moutiers,02 28 04 09 34,http://www.cc-castelbriantais.fr/reseau-des-bibliotheques,,,Lieu de lecture et d'activités.,gratuit,,,,,,47.678699,-1.188885,15 Chemin des Ecoliers 44670 Juigné-des-Moutiers,0.93,housenumber,44078_0160_00015,15,Chemin des Ecoliers,,44670,Juigné-des-Moutiers,44; Loire-Atlantique; Pays de la Loire,44078,,,
44670,Bibliothèque La chapelle glain,Saint-René 44670 La Chapelle-Glain,240810333,http://www.cc-castelbriantais.fr/reseau-des-bibliotheques,,,Lieu de lecture et d'activités.,gratuit,,,,,,47.651079,-1.179999,Saint Rene 44670 La Chapelle-Glain,0.94,locality,44031_c336,,Saint Rene,,44670,La Chapelle-Glain,44; Loire-Atlantique; Pays de la Loire,44031,,,
44670,Bibliothèque Petit auverné,7 Rue Sophie Trébuchet 44670 Petit-Auverné,02 40 07 79 76,http://www.cc-castelbriantais.fr/reseau-des-bibliotheques,,,Lieu de lecture et d'activités.,gratuit,,,,,,47.609159,-1.29027,7 Rue Sophie Trébuchet 44670 Petit-Auverné,0.93,housenumber,44121_0160_00007,7,Rue Sophie Trébuchet,,44670,Petit-Auverné,44; Loire-Atlantique; Pays de la Loire,44121,,,
44680,Bibliothèque A Livre Ouvert,32 Avenue de la Source 44680 Sainte-Pazanne,240026913,http://www.bibliotheque-sainte-pazanne.net/,,,,Consultations régulières + accès wifi : adhésion 8€/an  Ateliers : 5€/atelier ou 30€ le forfait annuel (CC Coeur Pays de Retz) - 10€/atelier (hors CC Coeur Pays de Retz),,gratuit : étudiants et demandeurs d'emploi,,,,47.102786,-1.803742,32 Avenue de la Source 44680 Sainte-Pazanne,0.95,housenumber,44186_0487_00032,32,Avenue de la Source,,44680,Sainte-Pazanne,44; Loire-Atlantique; Pays de la Loire,44186,,,
44680,Centre Médico-Social,11 Rue de l'Auditoire 44680 Sainte-Pazanne,228250980,,,,,Gratuit,,,,,,47.103582,-1.807201,11 Rue de l'Auditoire 44680 Sainte-Pazanne,0.95,housenumber,44186_0020_00011,11,Rue de l'Auditoire,,44680,Sainte-Pazanne,44; Loire-Atlantique; Pays de la Loire,44186,,,
44680,Bibliothèque Les Mots Passants,3 BIS Rue de la Bonne Fontaine 44680 Saint-Hilaire-de-Chalôns,240317330,http://www.saint-hilaire-de-chaleons.fr/biliotheque-2/,,,,gratuit,,,,,,47.102558,-1.864527,3 bis Rue Bonne Fontaine 44680 Saint-Hilaire-de-Chaléons,0.81,housenumber,44164_0015_00003_bis,3 bis,Rue Bonne Fontaine,,44680,Saint-Hilaire-de-Chaléons,44; Loire-Atlantique; Pays de la Loire,44164,,,
44680,Point Information Jeunesse de Sainte-Pazanne,1 Rue de Bazouin 44680 Sainte-Pazanne,240026863,http://www.animationjeunesse.coeurpaysderetz.fr,,,,gratuit,,,,,,47.103883,-1.809835,1 Rue de Bazouin 44680 Sainte-Pazanne,0.95,housenumber,44186_0065_00001,1,Rue de Bazouin,,44680,Sainte-Pazanne,44; Loire-Atlantique; Pays de la Loire,44186,,,
44680,Mairie Sainte Pazanne,10 Rue de l'Hôtel de Ville 44680 Sainte-Pazanne,240024374,http://www.sainte-pazanne.fr/,,,,gratuit,,,,,,47.102832,-1.811296,10 Rue de l'Hotel de Ville 44680 Sainte-Pazanne,0.95,housenumber,44186_0220_00010,10,Rue de l'Hotel de Ville,,44680,Sainte-Pazanne,44; Loire-Atlantique; Pays de la Loire,44186,,,
44680,Cybercentre du Pays de Retz,1 Rue de Bazouin 44680 Sainte-Pazanne,,,,,,,,,,,,47.103883,-1.809835,1 Rue de Bazouin 44680 Sainte-Pazanne,0.95,housenumber,44186_0065_00001,1,Rue de Bazouin,,44680,Sainte-Pazanne,44; Loire-Atlantique; Pays de la Loire,44186,,,
44700,,2 Promenade de l'Europe 44700 Orvault,,,,,,,,,,,,47.272321,-1.625819,2 Promenade de l'Europe 44700 Orvault,0.95,housenumber,44114_0652_00002,2,Promenade de l'Europe,,44700,Orvault,44; Loire-Atlantique; Pays de la Loire,44114,,,
44710,Anim'Action,27 Rue de Pornic 44710 Port-Saint-Père,240315318,http://www.animaction.asso.fr/,,,,Gratuit ou prix réduit,,,,,,47.132822,-1.750157,27 Rue de Pornic 44710 Port-Saint-Père,0.94,housenumber,44133_0300_00027,27,Rue de Pornic,,44710,Port-Saint-Père,44; Loire-Atlantique; Pays de la Loire,44133,,,
44710,"Médiathèque Municipale ""Livres y Médias""",2 Rue de la Morinière 44710 Port-Saint-Père,240217827,https//www.saintpereenretz.fr/bouger/culture/mediatheque.html,,,,gratuit,,,,,,47.134263,-1.747184,2 Rue de la Morinière 44710 Port-Saint-Père,0.94,housenumber,44133_0208_00002,2,Rue de la Morinière,,44710,Port-Saint-Père,44; Loire-Atlantique; Pays de la Loire,44133,,,
44720,Start'Air Jeunes Saint-Joachim,Ile de Brecun 44720 Saint-Joachim,,http://www.startair.fr/saint-joachim,,,,,,Habitant de Saint-Joachim,,,,47.38273,-2.19215,Route de Brécun 44720 Saint-Joachim,0.79,street,44168_0120,,Route de Brécun,,44720,Saint-Joachim,44; Loire-Atlantique; Pays de la Loire,44168,,,
44720,Bibliothèque Louise Michel,77 Rue Joliot Curie 44720 Saint-Joachim,240616922,http://stjoachim.opac3d.fr,,,,gratuit,,,,,,47.38432,-2.20229,77 Rue Joliot-curie 44720 Saint-Joachim,0.94,housenumber,44168_0190_00077,77,Rue Joliot-curie,,44720,Saint-Joachim,44; Loire-Atlantique; Pays de la Loire,44168,,,
44730,Médiathèque Lettres de mon Moulin,22 BIS Rue du Redois 44730 Saint-Michel-Chef-Chef,240278630,http://www.stmichelchefchef.fr/mediatheque,,,,gratuit / impression gratuite jusqu'?¦ 5 documents,,,,,,47.181083,-2.150903,22 bis Rue du Redois 44730 Saint-Michel-Chef-Chef,0.95,housenumber,44182_1960_00022_bis,22 bis,Rue du Redois,,44730,Saint-Michel-Chef-Chef,44; Loire-Atlantique; Pays de la Loire,44182,,,
44740,Médiathèque de Batz-sur-Mer,11 Rue de la Plage 44740 Batz-sur-Mer,240238951,http://www.mediatheque.batzsurmer.fr,,,,gratuit,,,,,,47.276392,-2.481,11 Rue de la Plage 44740 Batz-sur-Mer,0.94,housenumber,44010_1540_00011,11,Rue de la Plage,,44740,Batz-sur-Mer,44; Loire-Atlantique; Pays de la Loire,44010,,,
44750,Médiathèque de Quilly,Rue de la Mairie 44750 Quilly,970210889,http://www.mediatheques.estuaire-sillon.fr/quilly,,,,gratuit,,,,,,47.46038,-1.952735,Rue de la Mairie 44750 Quilly,0.94,street,44139_0735,,Rue de la Mairie,,44750,Quilly,44; Loire-Atlantique; Pays de la Loire,44139,,,
44750,Médiathèque de Campbon,Rue Saint-Victor 44750 Campbon,228018310,http://www.mediatheques.estuaire-sillon.fr/campbon,,,,gratuit,,,,,,47.412105,-1.966721,Rue Saint-victor 44750 Campbon,0.94,street,44025_0203,,Rue Saint-victor,,44750,Campbon,44; Loire-Atlantique; Pays de la Loire,44025,,,
44760,Bibliothèque municipale Raymond Devos,Rue des Lutins 44760 Les Moutiers-en-Retz,240827577,,,,,,,,,,,47.064671,-2.000599,Rue des Lucioles 44760 Les Moutiers-en-Retz,0.74,street,44106_0293,,Rue des Lucioles,,44760,Les Moutiers-en-Retz,44; Loire-Atlantique; Pays de la Loire,44106,,,
44780,Bibliothèque  de Missillac,4 Rue Fontaine Saint-Jean 44780 Missillac,240193231,http://www.cc-paysdepontchateau.fr/contacts/bibliotheque-de-missillac-2,,,,gratuit,,,,,,47.481605,-2.158935,4 Rue de la Fontaine Saint Jean 44780 Missillac,0.83,housenumber,44098_0110_00004,4,Rue de la Fontaine Saint Jean,,44780,Missillac,44; Loire-Atlantique; Pays de la Loire,44098,,,
44800,Cybercentre de Saint-Herblain (La Harlière),Rue de Sancerre 44800 Saint-Herblain,,,,,,,,,,,,47.213446,-1.611089,Rue de Sancerre 44800 Saint-Herblain,0.96,street,44162_2462,,Rue de Sancerre,,44800,Saint-Herblain,44; Loire-Atlantique; Pays de la Loire,44162,,,
44800,Maison de l'emploi Saint Herblain Sillon,5 BIS Avenue de l'Angevinière 44800 Saint-Herblain,,,,,,,,,,,,47.244712,-1.60879,5 bis Avenue de l'Angevinière 44800 Saint-Herblain,0.96,housenumber,44162_0071_00005_bis,5 bis,Avenue de l'Angevinière,,44800,Saint-Herblain,44; Loire-Atlantique; Pays de la Loire,44162,,,
44850,Bibliothèque Saint Exupery,40 Rue de Vieillevigne 44850 Ligné,251122611,http://bibliofil.pays-ancenis.fr/,,,Accès à un point numérique.,gratuit,,,,,,47.410676,-1.375294,40 Rue de Vieillevigne 44850 Ligné,0.95,housenumber,44082_0080_00040,40,Rue de Vieillevigne,,44850,Ligné,44; Loire-Atlantique; Pays de la Loire,44082,,,
44850,Médiathèque Claire Brété cher,62 Rue de Bel-Air 44850 Le Cellier,240254482,http://bibliofil.pays-ancenis.fr/,,,Lieu de lecture et d'activités.,gratuit,,,,,,47.325769,-1.348493,62 Rue de Bel Air 44850 Le Cellier,0.94,housenumber,44028_0010_00062,62,Rue de Bel Air,,44850,Le Cellier,44; Loire-Atlantique; Pays de la Loire,44028,,,
49000,Rue de la Bourrie (Machecoul) 44270 Machecoul-Saint-Mème,,,,,,,,,,,,,,,,,,,,,,,,,,,,
49000,Espace multimédia - Centre J. Tati,5 Rue Eugénie Mansion 49000 Angers,,,,,,,,,,,,47.476581,-0.586933,5 Rue Eugénie Mansion 49000 Angers,0.96,housenumber,49007_2950_00005,5,Rue Eugénie Mansion,,49000,Angers,49; Maine-et-Loire; Pays de la Loire,49007,,,
49000,Cybercentre de la Roseraie,8 Square Dumont d'Urville 49000 Angers,,,,,,,,,,,,47.444549,-0.557323,8 Square Dumont d'Urville 49000 Angers,0.96,housenumber,49007_2619_00008,8,Square Dumont d'Urville,,49000,Angers,49; Maine-et-Loire; Pays de la Loire,49007,,,
49080,,2 Place de l'Abbé Thomas 49080 Bouchemaine,,,,,,,,,,,,47.422461,-0.609282,2 Place de l'Abbé Thomas 49080 Bouchemaine,0.95,housenumber,49035_0002_00002,2,Place de l'Abbé Thomas,,49080,Bouchemaine,49; Maine-et-Loire; Pays de la Loire,49035,,,
49100,Cybercentre Angers Nord Est,24 Cité du Daguenet 49100 Angers,,,,,,,,,,,,47.475407,-0.525607,24 Cité du Daguenet 49100 Angers,0.96,housenumber,49007_3v7ak9_00024,24,Cité du Daguenet,,49100,Angers,49; Maine-et-Loire; Pays de la Loire,49007,,,
49100,Espace Multimédia La Claverie,Rue de Bourgogne 49100 Angers,,,,,,,,,,,,47.492362,-0.523186,Rue de Bourgogne 49100 Angers,0.96,street,49007_1034,,Rue de Bourgogne,,49100,Angers,49; Maine-et-Loire; Pays de la Loire,49007,,,
49100,AMBIANCES Multimedia,10 Rue Bodinier 49100 Angers,,,,,,,,,,,,47.47286,-0.552681,10 Rue Bodinier 49100 Angers,0.96,housenumber,49007_0960_00010,10,Rue Bodinier,,49100,Angers,49; Maine-et-Loire; Pays de la Loire,49007,,,
49100,Association des Foyers Angevins de Jeunes Travailleurs,7 Rue de Haarlem 49100 Angers,,,,,,,,,,,,47.486058,-0.523275,7 Rue de Haarlem 49100 Angers,0.96,housenumber,49007_3818_00007,7,Rue de Haarlem,,49100,Angers,49; Maine-et-Loire; Pays de la Loire,49007,,,
49112,Association Pellouaillaise Loisirs Animation-PIJ,21 Place de l'échanson (Pellouailles-les-Vignes) 49112 Verrières-en-Anjou,+33 2 41 76 19 15,,,,,,,,,,,47.531382,-0.457491,La Grande Bergerie (pellou (Pellouailles-les-Vignes) 49112 Verrières-en-Anjou,0.59,locality,49323_b860,,La Grande Bergerie (pellou (Pellouailles-les-Vignes),,49112,Verrières-en-Anjou,49; Maine-et-Loire; Pays de la Loire,49323,49238,Pellouailles-les-Vignes,
49120,Association Centre social du chemillois,5 Rue de la Gabardière (Chemillé-Meslay) 49120 Chemillé-en-Anjou,241305055,,,,,,,,,,,47.216912,-0.727681,5 Rue de la Gabardière 49120 Chemillé-en-Anjou,0.71,housenumber,49092_0561_00005,5,Rue de la Gabardière,,49120,Chemillé-en-Anjou,49; Maine-et-Loire; Pays de la Loire,49092,49092,Chemillé,
49120,MSAP,5 Rue de la Gabardière (Chemillé-Melay) 49120 Chemillé-en-Anjou,,,,,,,,,,,,47.216912,-0.727681,5 Rue de la Gabardière 49120 Chemillé-en-Anjou,0.73,housenumber,49092_0561_00005,5,Rue de la Gabardière,,49120,Chemillé-en-Anjou,49; Maine-et-Loire; Pays de la Loire,49092,49092,Chemillé,
49120,,5 Rue de la Gabardière (Chemillé-Melay) 49120 Chemillé-en-Anjou,,,,,,,,,,,,47.216912,-0.727681,5 Rue de la Gabardière 49120 Chemillé-en-Anjou,0.73,housenumber,49092_0561_00005,5,Rue de la Gabardière,,49120,Chemillé-en-Anjou,49; Maine-et-Loire; Pays de la Loire,49092,49092,Chemillé,
49123,MSAP,6 Rue Michel (Ingrandes) 49123 Ingrandes-Le Fresne sur Loire,,,,,,,,,,,,47.404602,-0.921354,6 Rue Michel 49123 Ingrandes-Le Fresne sur Loire,0.78,housenumber,49160_0280_00006,6,Rue Michel,,49123,Ingrandes-Le Fresne sur Loire,49; Maine-et-Loire; Pays de la Loire,49160,49160,Ingrandes,
49150,MSAP,15 Avenue Legoulz de la Boulaie 49150 Baugé-en-Anjou,,,,,,,,,,,,47.538005,-0.097096,15 Avenue Legoulz de la Boulaie 49150 Baugé-en-Anjou,0.95,housenumber,49018_1140_00015,15,Avenue Legoulz de la Boulaie,,49150,Baugé-en-Anjou,49; Maine-et-Loire; Pays de la Loire,49018,49018,Baugé,
49150,,Square du Pont des Fées 49150 Baugé-en-Anjou,,,,,,,,,,,,47.538645,-0.096139,Square du Pont des Fées 49150 Baugé-en-Anjou,0.95,street,49018_1582,,Square du Pont des Fées,,49150,Baugé-en-Anjou,49; Maine-et-Loire; Pays de la Loire,49018,49018,Baugé,
49160,Place du Maréchal Leclerc 49160 Longué-Jumelles,Place du Maréchal Leclerc 49160 Longué-Jumelles,,,,,,,,,,,,47.380886,-0.10939,Place du Maréchal Leclerc 49160 Longué-Jumelles,0.95,street,49180_1340,,Place du Maréchal Leclerc,,49160,Longué-Jumelles,49; Maine-et-Loire; Pays de la Loire,49180,,,
49170,,5 Rue de Savennières 49170 Saint-Georges-sur-Loire,,,,,,,,,,,,47.406964,-0.757777,5 Rue de Savennières 49170 Saint-Georges-sur-Loire,0.94,housenumber,49283_0101_00005,5,Rue de Savennières,,49170,Saint-Georges-sur-Loire,49; Maine-et-Loire; Pays de la Loire,49283,,,
49250,Point Cyb /Bibliothèque Mathu’Lu – SAINT MATHURIN SUR LOIRE,Passage des Grandes Bottes (Saint-Mathurin-sur-Loire) 49250 Loire-Authion,tel:+330241570976,http://www.loire-authion.fr/cybercentres-multimedia,Boris au 06 43 12 33 96Jean-Marie au 06 48 37 40 72,E-mail : vlan@aidal.fr,L’AIDAL engage une démarche d’animation numérique envers tous les publics; en insistant notamment sur la prévention des risques liés à Internet et sur l’éducation aux médias auprès des plus jeunes.,Tous publics,,Tous publics,,,,47.410087,-0.32165,Passage des Grandes Bottes 49250 Loire-Authion,0.63,street,49307_0069,,Passage des Grandes Bottes,,49250,Loire-Authion,49; Maine-et-Loire; Pays de la Loire,49307,49307,Saint-Mathurin-sur-Loire,
49250,Syndicat mixte Loire-Authion,1 Boulevard du Rempart (Beaufort-en-Vallée) 49250 Beaufort-en-Anjou,,,,,,,,,,,,47.438375,-0.214985,1 Boulevard du Rempart 49250 Beaufort-en-Anjou,0.68,housenumber,49021_1120_00001,1,Boulevard du Rempart,,49250,Beaufort-en-Anjou,49; Maine-et-Loire; Pays de la Loire,49021,49021,Beaufort-en-Vallée,
49250,Point Cyb LA MéNITRé,10 Place du Colonel Léon Faye 49250 La Ménitré,,,,,,,,,,,,47.402036,-0.270319,10 Place Colonel Leon Faye 49250 La Ménitré,0.88,housenumber,49201_0060_00010,10,Place Colonel Leon Faye,,49250,La Ménitré,49; Maine-et-Loire; Pays de la Loire,49201,,,
49260,,139 Rue d'Anjou 49260 Montreuil-Bellay,,,,,,,,,,,,47.127865,-0.143755,139 Rue d'Anjou 49260 Montreuil-Bellay,0.94,housenumber,49215_0312_00139,139,Rue d'Anjou,,49260,Montreuil-Bellay,49; Maine-et-Loire; Pays de la Loire,49215,,,
49260,Centre Social Déclic-PIJ,362 Rue du Général de Gaulle 49260 Montreuil-Bellay,,,,,,,,,,,,47.12738,-0.145588,362 Rue du Général de Gaulle 49260 Montreuil-Bellay,0.94,housenumber,49215_0906_00362,362,Rue du Général de Gaulle,,49260,Montreuil-Bellay,49; Maine-et-Loire; Pays de la Loire,49215,,,
49270,,20 Rue Jfa Chenouard (Drain) 49270 Orée d'Anjou,02 40 98 26 76,https://fr-fr.facebook.com/Centre-socioculturel-Rives-de-Loire-501447309944512/,,,Accompagnement numérique sur les sites internet des partenaires signataires de la convention mais aussi pour certains des permanences physiques,,,,,,,47.339223,-1.2066,20 Rue Jfa Chenouard (drain) 49530 Orée d'Anjou,0.84,housenumber,49069_0254_00020,20,Rue Jfa Chenouard (drain),,49530,Orée d'Anjou,49; Maine-et-Loire; Pays de la Loire,49069,49126,Drain,
49290,Train?¦,4 Rue des Poilus 49290 Chalonnes-sur-Loire,,,,,,,,,,,,47.35206,-0.761805,4 Rue des Poilus 49290 Chalonnes-sur-Loire,0.95,housenumber,49063_1000_00004,4,Rue des Poilus,,49290,Chalonnes-sur-Loire,49; Maine-et-Loire; Pays de la Loire,49063,,,
49300,Centre social et socioculturel Horizon,4 Allée des Aigles 49300 Cholet,+33 2 41 65 13 88,,,,,,,,,,,47.045406,-0.900774,4 Allée des Aigles 49300 Cholet,0.96,housenumber,49099_0017_00004,4,Allée des Aigles,,49300,Cholet,49; Maine-et-Loire; Pays de la Loire,49099,49099,Cholet,
49300,Espace Jeunesse / CIJ,Rue Saint-Bonaventure 49300 Cholet,,,,,,,,,,,,47.059433,-0.874421,Rue Saint Bonaventure 49300 Cholet,0.96,street,49099_4100,,Rue Saint Bonaventure,,49300,Cholet,49; Maine-et-Loire; Pays de la Loire,49099,49099,Cholet,
49300,Centre Social du Verger Point Cyb,Rue du Bois Régnier 49300 Cholet,,,,,,,,,,,,47.053208,-0.853285,Rue du Bois Régnier 49300 Cholet,0.96,street,49099_0539,,Rue du Bois Régnier,,49300,Cholet,49; Maine-et-Loire; Pays de la Loire,49099,49099,Cholet,
49310,Lys-Haut-Layon,10 Place Charles de Gaulle (Vihiers) 49310 Lys-Haut-Layon,,,,,,,,,,,,47.145644,-0.535161,10 Place Charles de Gaulle 49310 Lys-Haut-Layon,0.81,housenumber,49373_0281_00010,10,Place Charles de Gaulle,,49310,Lys-Haut-Layon,49; Maine-et-Loire; Pays de la Loire,49373,49373,Vihiers,
49310,VIHIERS - Centre socio-culturel le Coin de la Rue,2 Rue du Comte de Champagny (Vihiers) 49310 Lys-Haut-Layon,,,,,Orientation et vous information autour des démarches administratives,,,,scanner ou téléphone aux organismes partenaires,,,47.146445,-0.533605,2 Rue du Comte de Champagny 49310 Lys-Haut-Layon,0.82,housenumber,49373_0380_00002,2,Rue du Comte de Champagny,,49310,Lys-Haut-Layon,49; Maine-et-Loire; Pays de la Loire,49373,49373,Vihiers,
49320,EMILA de Vauchrétien,Rue Principale (Vauchrétien) 49320 Brissac Loire Aubance,,,,,,,,,,,,47.33108,-0.479076,Rue Principale (Vauchrétien) 49320 Brissac Loire Aubance,0.95,street,49363_0034,,Rue Principale (Vauchrétien),,49320,Brissac Loire Aubance,49; Maine-et-Loire; Pays de la Loire,49050,49363,Vauchrétien,
49320,EMILA de Brissac-Quincé / Réseau ERN,3 Rue du Marin (Brissac-Quincé) 49320 Brissac Loire Aubance,,,,,,,,,,,,47.353215,-0.446009,3 Rue du Marin 49320 Brissac Loire Aubance,0.71,housenumber,49050_0264_00003,3,Rue du Marin,,49320,Brissac Loire Aubance,49; Maine-et-Loire; Pays de la Loire,49050,49050,Brissac-Quincé,
49330,C.A.F.,2 Rue des Fontaines 49330 Châteauneuf-sur-Sarthe,,,,,,,,,Photocopiur scanner...,,,47.679666,-0.487048,2 Rue des Moulins (Châteauneuf-sur-Sarthe) 49330 Les Hauts-d'Anjou,0.67,housenumber,49080_0070_00002,2,Rue des Moulins (Châteauneuf-sur-Sarthe),,49330,Les Hauts-d'Anjou,49; Maine-et-Loire; Pays de la Loire,49080,49080,Châteauneuf-sur-Sarthe,
49330,,Allée de la Passion Champigné 49330 Les Hauts d'Anjou,,,,,,,,,,,,47.662915,-0.572074,Allée de la Passion 49330 Les Hauts-d'Anjou,0.77,street,49065_0109,,Allée de la Passion,,49330,Les Hauts-d'Anjou,49; Maine-et-Loire; Pays de la Loire,49080,49065,Champigné,
